[
  {
    "alt": "15.0",
    "id": "3002",
    "lat": "60.749",
    "lng": "-0.854",
    "name": "Baltasound",
    "region": "os",
    "unitaryAuthArea": "Shetland Islands"
  },
  {
    "alt": "0.0",
    "id": "353763",
    "lat": "60.4517",
    "lng": "-1.3125",
    "name": "Sullom Voe",
    "region": "os",
    "unitaryAuthArea": "Shetland Islands"
  },
  {
    "alt": "0.0",
    "id": "353854",
    "lat": "60.1585",
    "lng": "-1.4147",
    "name": "The Deeps",
    "region": "os",
    "unitaryAuthArea": "Shetland Islands"
  },
  {
    "alt": "5.0",
    "id": "353764",
    "lat": "59.8786",
    "lng": "-1.2931",
    "name": "Sumburgh Airport",
    "region": "os",
    "unitaryAuthArea": "Shetland Islands"
  },
  {
    "alt": "0.0",
    "id": "352851",
    "lat": "59.3286",
    "lng": "-2.3882",
    "name": "North Ronaldsay Firth",
    "region": "os",
    "unitaryAuthArea": "Orkney Islands"
  },
  {
    "alt": "0.0",
    "id": "352555",
    "lat": "59.099",
    "lng": "-3.349",
    "name": "Marwick",
    "region": "os",
    "unitaryAuthArea": "Orkney Islands"
  },
  {
    "alt": "28.0",
    "id": "353745",
    "lat": "58.9665",
    "lng": "-3.2949",
    "name": "Stromness",
    "region": "os",
    "unitaryAuthArea": "Orkney Islands"
  },
  {
    "alt": "42.0",
    "id": "352046",
    "lat": "58.6321",
    "lng": "-3.1192",
    "name": "John O' Groats Youth Hostel",
    "region": "he",
    "unitaryAuthArea": "Highland"
  },
  {
    "alt": "0.0",
    "id": "350749",
    "lat": "58.5477",
    "lng": "-4.3325",
    "name": "Caol Raineach",
    "region": "he",
    "unitaryAuthArea": "Highland"
  },
  {
    "alt": "36.0",
    "id": "3075",
    "lat": "58.454",
    "lng": "-3.089",
    "obsSource": "LNDSYN",
    "name": "Wick John O Groats Airport",
    "region": "he",
    "unitaryAuthArea": "Highland"
  },
  {
    "alt": "50.0",
    "id": "351540",
    "lat": "58.2975",
    "lng": "-6.7855",
    "name": "Garenin Youth Hostel",
    "region": "he",
    "unitaryAuthArea": "Na h-Eileanan Siar"
  },
  {
    "alt": "2.0",
    "id": "353720",
    "lat": "58.2171",
    "lng": "-6.3308",
    "name": "Stornoway Airport",
    "region": "he",
    "unitaryAuthArea": "Na h-Eileanan Siar"
  },
  {
    "alt": "987.0",
    "id": "351001",
    "lat": "58.1362",
    "lng": "-4.8804",
    "name": "Conival",
    "region": "he",
    "unitaryAuthArea": "Highland"
  },
  {
    "alt": "21.0",
    "id": "350027",
    "lat": "57.9968",
    "lng": "-5.3138",
    "name": "Achininver Youth Hostel",
    "region": "he",
    "unitaryAuthArea": "Highland"
  },
  {
    "alt": "119.0",
    "id": "350210",
    "lat": "57.9143",
    "lng": "-4.3475",
    "name": "Balblair Trails",
    "region": "he",
    "unitaryAuthArea": "Highland"
  },
  {
    "alt": "11.0",
    "id": "3034",
    "lat": "57.859",
    "lng": "-5.636",
    "name": "Aultbea",
    "region": "he",
    "unitaryAuthArea": "Highland"
  },
  {
    "alt": "928.0",
    "id": "351366",
    "lat": "57.8128",
    "lng": "-4.9359",
    "name": "Eididh Nan Clach Geala",
    "region": "he",
    "unitaryAuthArea": "Highland"
  },
  {
    "alt": "914.0",
    "id": "350306",
    "lat": "57.7464",
    "lng": "-5.2592",
    "name": "Beinn A' Chlaidheimh",
    "region": "he",
    "unitaryAuthArea": "Highland"
  },
  {
    "id": "351532",
    "lat": "57.7168",
    "lng": "-5.7437",
    "name": "Gairloch",
    "region": "he",
    "unitaryAuthArea": "Highland"
  },
  {
    "alt": "0.0",
    "id": "354446",
    "lat": "57.6983",
    "lng": "-2.1111",
    "name": "Rosehearty (Beach)",
    "region": "gr",
    "unitaryAuthArea": "Aberdeenshire"
  },
  {
    "alt": "2.0",
    "id": "322319",
    "lat": "57.6883",
    "lng": "-4.1715",
    "name": "Invergordon",
    "region": "he",
    "unitaryAuthArea": "Highland"
  },
  {
    "alt": "0.0",
    "id": "354445",
    "lat": "57.6766",
    "lng": "-1.9548",
    "name": "Fraserburgh (Beach)",
    "region": "gr",
    "unitaryAuthArea": "Aberdeenshire"
  },
  {
    "alt": "18.0",
    "id": "310193",
    "lat": "57.6496",
    "lng": "-3.317",
    "name": "Elgin",
    "region": "gr",
    "unitaryAuthArea": "Moray"
  },
  {
    "alt": "9.0",
    "id": "351505",
    "lat": "57.61",
    "lng": "-3.6185",
    "name": "Forres",
    "region": "gr",
    "unitaryAuthArea": "Moray"
  },
  {
    "alt": "11.0",
    "id": "352738",
    "lat": "57.5866",
    "lng": "-3.867",
    "name": "Nairn",
    "region": "he",
    "unitaryAuthArea": "Highland"
  },
  {
    "alt": "1023.0",
    "id": "352716",
    "lat": "57.5632",
    "lng": "-5.4941",
    "name": "Mullach An Rathain",
    "region": "he",
    "unitaryAuthArea": "Highland"
  },
  {
    "alt": "64.0",
    "id": "350845",
    "lat": "57.5242",
    "lng": "-3.9148",
    "name": "Cawdor Castle Grounds",
    "region": "he",
    "unitaryAuthArea": "Highland"
  },
  {
    "alt": "0.0",
    "id": "354444",
    "lat": "57.5021",
    "lng": "-1.7912",
    "name": "Peterhead Lido (Beach)",
    "region": "gr",
    "unitaryAuthArea": "Aberdeenshire"
  },
  {
    "alt": "915.0",
    "id": "353445",
    "lat": "57.4836",
    "lng": "-5.1951",
    "name": "Sgurr Nan Ceannaichean",
    "region": "he",
    "unitaryAuthArea": "Highland"
  },
  {
    "alt": "992.0",
    "id": "350797",
    "lat": "57.4529",
    "lng": "-4.8715",
    "name": "Carn Nan Gobhar (Glen Strathfarrar)",
    "region": "he",
    "unitaryAuthArea": "Highland"
  },
  {
    "alt": "773.0",
    "id": "3039",
    "lat": "57.4175",
    "lng": "-5.689",
    "name": "Bealach Na Ba",
    "region": "he",
    "unitaryAuthArea": "Highland"
  },
  {
    "alt": "1129.0",
    "id": "350098",
    "lat": "57.3647",
    "lng": "-5.0992",
    "name": "An Riabhachan",
    "region": "he",
    "unitaryAuthArea": "Highland"
  },
  {
    "alt": "781.0",
    "id": "371409",
    "lat": "57.3448",
    "lng": "-3.1949",
    "name": "Corryhabbie Hill",
    "region": "gr",
    "unitaryAuthArea": "Moray"
  },
  {
    "alt": "119.0",
    "id": "354157",
    "lat": "57.3288",
    "lng": "-2.5402",
    "name": "Westhall",
    "region": "gr",
    "unitaryAuthArea": "Aberdeenshire"
  },
  {
    "alt": "982.0",
    "id": "352720",
    "lat": "57.2848",
    "lng": "-5.1855",
    "name": "Mullach Na Dheiragain",
    "region": "he",
    "unitaryAuthArea": "Highland"
  },
  {
    "alt": "18.0",
    "id": "3037",
    "lat": "57.257",
    "lng": "-5.809",
    "obsSource": "LNDSYN",
    "name": "Skye/Lusa",
    "region": "he",
    "unitaryAuthArea": "Highland"
  },
  {
    "alt": "965.0",
    "id": "353453",
    "lat": "57.2483",
    "lng": "-6.1924",
    "name": "Sgurr Nan Gillean",
    "region": "he",
    "unitaryAuthArea": "Highland"
  },
  {
    "alt": "918.0",
    "id": "353418",
    "lat": "57.2313",
    "lng": "-6.2266",
    "name": "Sgurr A' Mhadaidh",
    "region": "he",
    "unitaryAuthArea": "Highland"
  },
  {
    "alt": "1032.0",
    "id": "350324",
    "lat": "57.221",
    "lng": "-5.2825",
    "name": "Beinn Fhada",
    "region": "he",
    "unitaryAuthArea": "Highland"
  },
  {
    "alt": "944.0",
    "id": "353429",
    "lat": "57.2049",
    "lng": "-6.2135",
    "name": "Sgurr Dubh Mor",
    "region": "he",
    "unitaryAuthArea": "Highland"
  },
  {
    "alt": "1002.0",
    "id": "353556",
    "lat": "57.1893",
    "lng": "-5.0929",
    "name": "SÃ³il Chaorainn",
    "region": "he",
    "unitaryAuthArea": "Highland"
  },
  {
    "alt": "1003.0",
    "id": "350120",
    "lat": "57.1709",
    "lng": "-5.2325",
    "name": "Aonach Meadhoin",
    "region": "he",
    "unitaryAuthArea": "Highland"
  },
  {
    "alt": "981.0",
    "id": "350338",
    "lat": "57.1544",
    "lng": "-5.5761",
    "name": "Beinn Sgritheall",
    "region": "he",
    "unitaryAuthArea": "Highland"
  },
  {
    "alt": "1010.0",
    "id": "353422",
    "lat": "57.133",
    "lng": "-5.2787",
    "name": "Sgurr An Doire Leathain",
    "region": "he",
    "unitaryAuthArea": "Highland"
  },
  {
    "alt": "871.0",
    "id": "371571",
    "lat": "57.1228",
    "lng": "-3.0294",
    "name": "Morven",
    "nationalPark": "Cairngorms National Park",
    "region": "gr",
    "unitaryAuthArea": "Aberdeenshire"
  },
  {
    "alt": "69.0",
    "id": "371598",
    "lat": "57.0987",
    "lng": "-2.2637",
    "name": "Peterculter",
    "region": "gr",
    "unitaryAuthArea": "Aberdeen"
  },
  {
    "alt": "140.0",
    "id": "3080",
    "lat": "57.077",
    "lng": "-2.836",
    "name": "Aboyne",
    "region": "gr",
    "unitaryAuthArea": "Aberdeenshire"
  },
  {
    "alt": "69.0",
    "id": "351062",
    "lat": "57.0635",
    "lng": "-2.4354",
    "name": "Crathes Castle Grounds",
    "region": "gr",
    "unitaryAuthArea": "Aberdeenshire"
  },
  {
    "alt": "197.0",
    "id": "350216",
    "lat": "57.0501",
    "lng": "-3.0351",
    "name": "Ballater",
    "nationalPark": "Cairngorms National Park",
    "region": "gr",
    "unitaryAuthArea": "Aberdeenshire"
  },
  {
    "alt": "1003.0",
    "id": "353434",
    "lat": "57.0268",
    "lng": "-5.3486",
    "name": "Sgurr Mor (1003m)",
    "region": "he",
    "unitaryAuthArea": "Highland"
  },
  {
    "alt": "331.0",
    "id": "322053",
    "lat": "57.0065",
    "lng": "-3.3966",
    "name": "Braemar",
    "nationalPark": "Cairngorms National Park",
    "region": "gr",
    "unitaryAuthArea": "Aberdeenshire"
  },
  {
    "alt": "363.0",
    "id": "352016",
    "lat": "56.9869",
    "lng": "-3.5167",
    "name": "Inverey Youth Hostel",
    "nationalPark": "Cairngorms National Park",
    "region": "gr",
    "unitaryAuthArea": "Aberdeenshire"
  },
  {
    "alt": "158.0",
    "id": "350589",
    "lat": "56.9634",
    "lng": "-2.5742",
    "name": "Bridge Of Dye",
    "region": "gr",
    "unitaryAuthArea": "Aberdeenshire"
  },
  {
    "alt": "994.0",
    "id": "350778",
    "lat": "56.9384",
    "lng": "-3.8009",
    "name": "Carn An Fhidhleir",
    "region": "ta",
    "unitaryAuthArea": "Highland"
  },
  {
    "alt": "1012.0",
    "id": "350712",
    "lat": "56.9274",
    "lng": "-3.2833",
    "name": "Cairn Bannoch",
    "nationalPark": "Cairngorms National Park",
    "region": "gr",
    "unitaryAuthArea": "Angus"
  },
  {
    "alt": "1049.0",
    "id": "351552",
    "lat": "56.8979",
    "lng": "-4.4593",
    "name": "Geal Charn (1049m)",
    "region": "he",
    "unitaryAuthArea": "Highland"
  },
  {
    "alt": "1029.0",
    "id": "350779",
    "lat": "56.8779",
    "lng": "-3.5866",
    "name": "Carn An Righ",
    "region": "ta",
    "unitaryAuthArea": "Perth and Kinross"
  },
  {
    "alt": "1087.0",
    "id": "350305",
    "lat": "56.8683",
    "lng": "-4.5081",
    "name": "Beinn A' Chlachair",
    "region": "he",
    "unitaryAuthArea": "Highland"
  },
  {
    "alt": "1034.0",
    "id": "350784",
    "lat": "56.8533",
    "lng": "-4.4549",
    "name": "Carn Dearg (1034m)",
    "region": "he",
    "unitaryAuthArea": "Highland"
  },
  {
    "alt": "1132.0",
    "id": "351553",
    "lat": "56.8382",
    "lng": "-4.5058",
    "name": "Geal Charn (1132m)",
    "region": "he",
    "unitaryAuthArea": "Highland"
  },
  {
    "alt": "1047.0",
    "id": "350911",
    "lat": "56.8282",
    "lng": "-4.6578",
    "name": "Chno Dearg",
    "region": "he",
    "unitaryAuthArea": "Highland"
  },
  {
    "alt": "1148.0",
    "id": "350365",
    "lat": "56.8127",
    "lng": "-4.4624",
    "name": "Ben Alder",
    "region": "he",
    "unitaryAuthArea": "Highland"
  },
  {
    "alt": "1344.0",
    "id": "350377",
    "lat": "56.7965",
    "lng": "-5.0013",
    "name": "Ben Nevis",
    "region": "he",
    "unitaryAuthArea": "Highland"
  },
  {
    "alt": "1098.0",
    "id": "353419",
    "lat": "56.7569",
    "lng": "-5.0015",
    "name": "Sgurr A' Mhaim",
    "region": "he",
    "unitaryAuthArea": "Highland"
  },
  {
    "alt": "52.0",
    "id": "350580",
    "lat": "56.7334",
    "lng": "-2.6538",
    "name": "Brechin",
    "region": "ta",
    "unitaryAuthArea": "Angus"
  },
  {
    "alt": "91.0",
    "id": "371466",
    "lat": "56.68342",
    "lng": "-2.92726",
    "name": "Forfar No 3",
    "region": "ta",
    "unitaryAuthArea": "Angus"
  },
  {
    "alt": "1024.0",
    "id": "353410",
    "lat": "56.6531",
    "lng": "-5.1723",
    "name": "Sgorr Dhearg",
    "region": "he",
    "unitaryAuthArea": "Highland"
  },
  {
    "alt": "1072.0",
    "id": "353689",
    "lat": "56.6379",
    "lng": "-5.0105",
    "name": "Stob Coire Sgreamhach",
    "region": "he",
    "unitaryAuthArea": "Highland"
  },
  {
    "alt": "1029.0",
    "id": "350790",
    "lat": "56.6221",
    "lng": "-4.2223",
    "name": "Carn Gorm",
    "region": "ta",
    "unitaryAuthArea": "Perth and Kinross"
  },
  {
    "alt": "79.0",
    "id": "350482",
    "lat": "56.5889",
    "lng": "-3.3444",
    "name": "Blairgowrie",
    "region": "ta",
    "unitaryAuthArea": "Perth and Kinross"
  },
  {
    "alt": "1118.0",
    "id": "352584",
    "lat": "56.5665",
    "lng": "-4.2034",
    "name": "Meall Garbh (1118m)",
    "region": "ta",
    "unitaryAuthArea": "Perth and Kinross"
  },
  {
    "alt": "1038.0",
    "id": "350311",
    "lat": "56.5496",
    "lng": "-4.6897",
    "name": "Beinn Achaladair",
    "region": "st",
    "unitaryAuthArea": "Perth and Kinross"
  },
  {
    "alt": "953.0",
    "id": "350333",
    "lat": "56.5323",
    "lng": "-4.6447",
    "name": "Beinn Mhanach",
    "region": "ta",
    "unitaryAuthArea": "Perth and Kinross"
  },
  {
    "alt": "1076.0",
    "id": "350328",
    "lat": "56.5122",
    "lng": "-4.5778",
    "name": "Beinn Heasgarnich",
    "region": "ta",
    "unitaryAuthArea": "Perth and Kinross"
  },
  {
    "alt": "9.0",
    "id": "3100",
    "lat": "56.497",
    "lng": "-6.887",
    "obsSource": "LNDSYN",
    "name": "Tiree",
    "region": "st",
    "unitaryAuthArea": "Argyll and Bute"
  },
  {
    "alt": "6.0",
    "id": "301886",
    "lat": "56.4634",
    "lng": "-5.3994",
    "name": "Oban Airport",
    "region": "st",
    "unitaryAuthArea": "Argyll and Bute"
  },
  {
    "alt": "1022.0",
    "id": "350366",
    "lat": "56.4536",
    "lng": "-4.6194",
    "name": "Ben Challum",
    "region": "ta",
    "unitaryAuthArea": "Stirling"
  },
  {
    "alt": "229.0",
    "id": "354904",
    "lat": "56.4362",
    "lng": "-4.711",
    "name": "Tyndrum",
    "nationalPark": "Loch Lomond and the Trossachs National Park",
    "region": "ta",
    "unitaryAuthArea": "Stirling"
  },
  {
    "alt": "9.0",
    "id": "352889",
    "lat": "56.4152",
    "lng": "-5.4698",
    "name": "Oban",
    "region": "st",
    "unitaryAuthArea": "Argyll and Bute"
  },
  {
    "alt": "977.0",
    "id": "350321",
    "lat": "56.3925",
    "lng": "-4.7415",
    "name": "Beinn Dubhchraig",
    "nationalPark": "Loch Lomond and the Trossachs National Park",
    "region": "ta",
    "unitaryAuthArea": "Stirling"
  },
  {
    "alt": "88.0",
    "id": "351082",
    "lat": "56.3766",
    "lng": "-3.8406",
    "name": "Crieff",
    "region": "ta",
    "unitaryAuthArea": "Perth and Kinross"
  },
  {
    "alt": "19.0",
    "id": "310230",
    "lat": "56.34",
    "lng": "-2.7911",
    "name": "St. Andrews",
    "region": "ta",
    "unitaryAuthArea": "Fife"
  },
  {
    "alt": "948.0",
    "id": "350316",
    "lat": "56.326",
    "lng": "-4.9067",
    "name": "Beinn Bhuidhe",
    "region": "st",
    "unitaryAuthArea": "Argyll and Bute"
  },
  {
    "alt": "77.0",
    "id": "350593",
    "lat": "56.2963",
    "lng": "-2.9782",
    "name": "Bridgend (Fife)",
    "region": "ta",
    "unitaryAuthArea": "Fife"
  },
  {
    "alt": "137.0",
    "id": "350130",
    "lat": "56.2522",
    "lng": "-4.9313",
    "name": "Ardkinglas Woodland Garden",
    "region": "st",
    "unitaryAuthArea": "Argyll and Bute"
  },
  {
    "alt": "271.0",
    "id": "351598",
    "lat": "56.2273",
    "lng": "-3.6251",
    "name": "Glendevon Youth Hostel",
    "region": "ta",
    "unitaryAuthArea": "Perth and Kinross"
  },
  {
    "alt": "15.0",
    "id": "354856",
    "lat": "56.1967",
    "lng": "-4.7459",
    "name": "Arrochar",
    "nationalPark": "Loch Lomond and the Trossachs National Park",
    "region": "st",
    "unitaryAuthArea": "Argyll and Bute"
  },
  {
    "alt": "137.0",
    "id": "371617",
    "lat": "56.176",
    "lng": "-3.5818",
    "name": "Rumbling Bridge",
    "region": "ta",
    "unitaryAuthArea": "Perth and Kinross"
  },
  {
    "alt": "0.0",
    "id": "352380",
    "lat": "56.1351",
    "lng": "-4.8214",
    "name": "Loch Long",
    "region": "st",
    "unitaryAuthArea": "Argyll and Bute"
  },
  {
    "alt": "232.0",
    "id": "352175",
    "lat": "56.1255",
    "lng": "-3.4985",
    "name": "Knockhill Motor Racing Circuit",
    "region": "ta",
    "unitaryAuthArea": "Fife"
  },
  {
    "alt": "25.0",
    "id": "354372",
    "lat": "56.09984",
    "lng": "-3.1685",
    "name": "Raith Rovers F.C.",
    "region": "ta",
    "unitaryAuthArea": "Fife"
  },
  {
    "alt": "37.0",
    "id": "352113",
    "lat": "56.0713",
    "lng": "-3.1729",
    "name": "Kinghorn",
    "region": "ta",
    "unitaryAuthArea": "Fife"
  },
  {
    "alt": "32.0",
    "id": "350013",
    "lat": "56.0547",
    "lng": "-3.3013",
    "name": "Aberdour",
    "region": "ta",
    "unitaryAuthArea": "Fife"
  },
  {
    "alt": "12.0",
    "id": "351150",
    "lat": "56.0349",
    "lng": "-3.3491",
    "name": "Dalgety Bay",
    "region": "ta",
    "unitaryAuthArea": "Fife"
  },
  {
    "alt": "453.0",
    "id": "353152",
    "lat": "56.0211",
    "lng": "-5.9027",
    "name": "Rainberg Mor",
    "region": "st",
    "unitaryAuthArea": "Argyll and Bute"
  },
  {
    "alt": "0.0",
    "id": "351840",
    "lat": "56.0024",
    "lng": "-4.7327",
    "name": "Helensburgh",
    "region": "st",
    "unitaryAuthArea": "Argyll and Bute"
  },
  {
    "alt": "0.0",
    "id": "354457",
    "lat": "55.9852",
    "lng": "-2.901",
    "name": "Longniddry (Beach)",
    "region": "dg",
    "unitaryAuthArea": "East Lothian"
  },
  {
    "alt": "72.0",
    "id": "352295",
    "lat": "55.974",
    "lng": "-3.6014",
    "name": "Linlithgow",
    "region": "dg",
    "unitaryAuthArea": "West Lothian"
  },
  {
    "alt": "31.0",
    "id": "351057",
    "lat": "55.962",
    "lng": "-3.3186",
    "name": "Cramond Bridge",
    "region": "dg",
    "unitaryAuthArea": "Edinburgh"
  },
  {
    "alt": "74.0",
    "id": "350949",
    "lat": "55.9568",
    "lng": "-3.2895",
    "name": "Clermiston",
    "region": "dg",
    "unitaryAuthArea": "Edinburgh"
  },
  {
    "alt": "254.0",
    "id": "322052",
    "lat": "55.95",
    "lng": "-4.5",
    "name": "Bowling",
    "region": "st",
    "unitaryAuthArea": "West Dunbartonshire"
  },
  {
    "alt": "74.0",
    "id": "351356",
    "lat": "55.9453",
    "lng": "-3.1797",
    "name": "Edinburgh Pleasance Youth Hostel",
    "region": "dg",
    "unitaryAuthArea": "Edinburgh"
  },
  {
    "alt": "207.0",
    "id": "322595",
    "lat": "55.94",
    "lng": "-4.48",
    "name": "Old Kilpatrick",
    "region": "st",
    "unitaryAuthArea": "West Dunbartonshire"
  },
  {
    "alt": "20.0",
    "id": "352663",
    "lat": "55.9315",
    "lng": "-3.0587",
    "name": "Monktonhall",
    "region": "dg",
    "unitaryAuthArea": "East Lothian"
  },
  {
    "alt": "40.0",
    "id": "351289",
    "lat": "55.922",
    "lng": "-4.4187",
    "name": "Duntocher",
    "region": "st",
    "unitaryAuthArea": "West Dunbartonshire"
  },
  {
    "alt": "106.0",
    "id": "352279",
    "lat": "55.9132",
    "lng": "-3.1586",
    "name": "Liberton",
    "region": "dg",
    "unitaryAuthArea": "Edinburgh"
  },
  {
    "alt": "59.0",
    "id": "3134",
    "lat": "55.907",
    "lng": "-4.533",
    "name": "Glasgow/Bishopton",
    "region": "st",
    "unitaryAuthArea": "Renfrewshire"
  },
  {
    "alt": "141.0",
    "id": "350268",
    "lat": "55.9024",
    "lng": "-3.6417",
    "name": "Bathgate",
    "region": "dg",
    "unitaryAuthArea": "West Lothian"
  },
  {
    "alt": "179.0",
    "id": "350140",
    "lat": "55.8978",
    "lng": "-3.7008",
    "name": "Armadale",
    "region": "dg",
    "unitaryAuthArea": "West Lothian"
  },
  {
    "alt": "1.0",
    "id": "354351",
    "lat": "55.8896",
    "lng": "-4.3802",
    "name": "Yoker",
    "region": "st",
    "unitaryAuthArea": "Glasgow"
  },
  {
    "alt": "29.0",
    "id": "351582",
    "lat": "55.8848",
    "lng": "-4.2926",
    "name": "Glasgow Botanic Gardens",
    "region": "st",
    "unitaryAuthArea": "Glasgow"
  },
  {
    "alt": "103.0",
    "id": "350513",
    "lat": "55.8749",
    "lng": "-3.1049",
    "name": "Bonnyrigg",
    "region": "dg",
    "unitaryAuthArea": "Midlothian Council"
  },
  {
    "alt": "28.0",
    "id": "351585",
    "lat": "55.8691",
    "lng": "-4.2808",
    "name": "Glasgow Youth Hostel",
    "region": "st",
    "unitaryAuthArea": "Glasgow"
  },
  {
    "alt": "99.0",
    "id": "350968",
    "lat": "55.8623",
    "lng": "-4.018",
    "name": "Coatbridge",
    "region": "st",
    "unitaryAuthArea": "North Lanarkshire"
  },
  {
    "alt": "28.0",
    "id": "352955",
    "lat": "55.8516",
    "lng": "-4.1927",
    "name": "Parkhead (Glasgow)",
    "region": "st",
    "unitaryAuthArea": "Glasgow"
  },
  {
    "alt": "16.0",
    "id": "310119",
    "lat": "55.8473",
    "lng": "-4.4388",
    "name": "Paisley",
    "region": "st",
    "unitaryAuthArea": "Renfrewshire"
  },
  {
    "alt": "4.0",
    "id": "322720",
    "lat": "55.8374",
    "lng": "-5.0536",
    "name": "Rothesay",
    "region": "st",
    "unitaryAuthArea": "Argyll and Bute"
  },
  {
    "alt": "188.0",
    "id": "352988",
    "lat": "55.8309",
    "lng": "-3.2231",
    "name": "Penicuik",
    "region": "dg",
    "unitaryAuthArea": "Midlothian Council"
  },
  {
    "alt": "32.0",
    "id": "350271",
    "lat": "55.821",
    "lng": "-4.276",
    "name": "Battlefield",
    "region": "st",
    "unitaryAuthArea": "Glasgow"
  },
  {
    "alt": "45.0",
    "id": "354012",
    "lat": "55.8157",
    "lng": "-4.0778",
    "name": "Uddingston",
    "region": "st",
    "unitaryAuthArea": "South Lanarkshire"
  },
  {
    "alt": "115.0",
    "id": "350839",
    "lat": "55.8064",
    "lng": "-4.1984",
    "name": "Cathkin",
    "region": "st",
    "unitaryAuthArea": "South Lanarkshire"
  },
  {
    "alt": "31.0",
    "id": "352401",
    "lat": "55.7934",
    "lng": "-4.6266",
    "name": "Lochwinnoch",
    "region": "st",
    "unitaryAuthArea": "Renfrewshire"
  },
  {
    "alt": "67.0",
    "id": "351741",
    "lat": "55.7776",
    "lng": "-4.0523",
    "name": "Hamilton",
    "region": "st",
    "unitaryAuthArea": "South Lanarkshire"
  },
  {
    "alt": "54.0",
    "id": "352092",
    "lat": "55.7554",
    "lng": "-4.6847",
    "name": "Kilbirnie",
    "region": "st",
    "unitaryAuthArea": "North Ayrshire"
  },
  {
    "alt": "651.0",
    "id": "371360",
    "lat": "55.7235",
    "lng": "-3.0905",
    "name": "Blackhope Scar",
    "region": "dg",
    "unitaryAuthArea": "Scottish Borders"
  },
  {
    "alt": "190.0",
    "id": "352247",
    "lat": "55.6827",
    "lng": "-2.6557",
    "name": "Legerwood",
    "region": "dg",
    "unitaryAuthArea": "Scottish Borders"
  },
  {
    "alt": "22.0",
    "id": "350026",
    "lat": "55.6672",
    "lng": "-5.7488",
    "name": "Achamore Gardens",
    "region": "st",
    "unitaryAuthArea": "Argyll and Bute"
  },
  {
    "alt": "6.0",
    "id": "321979",
    "lat": "55.6439",
    "lng": "-4.8106",
    "name": "Ardrossan",
    "region": "st",
    "unitaryAuthArea": "North Ayrshire"
  },
  {
    "alt": "245.0",
    "id": "3155",
    "lat": "55.627",
    "lng": "-3.735",
    "name": "Drumalbin",
    "region": "st",
    "unitaryAuthArea": "South Lanarkshire"
  },
  {
    "alt": "56.0",
    "id": "352061",
    "lat": "55.6142",
    "lng": "-2.4296",
    "name": "Kelso Racecourse",
    "region": "dg",
    "unitaryAuthArea": "Scottish Borders"
  },
  {
    "alt": "216.0",
    "id": "351178",
    "lat": "55.6007",
    "lng": "-3.3198",
    "name": "Dawyck Botanic Garden",
    "region": "dg",
    "unitaryAuthArea": "Scottish Borders"
  },
  {
    "alt": "676.0",
    "id": "371652",
    "lat": "55.5871",
    "lng": "-3.2212",
    "name": "Stob Law",
    "region": "dg",
    "unitaryAuthArea": "Scottish Borders"
  },
  {
    "alt": "137.0",
    "id": "351051",
    "lat": "55.5596",
    "lng": "-4.4921",
    "name": "Craigie",
    "region": "st",
    "unitaryAuthArea": "South Ayrshire"
  },
  {
    "alt": "0.0",
    "id": "354774",
    "lat": "55.5414",
    "lng": "-1.6344",
    "name": "Beadnell Bay (Beach)",
    "region": "ne",
    "unitaryAuthArea": "Northumberland"
  },
  {
    "alt": "688.0",
    "id": "371471",
    "lat": "55.5159",
    "lng": "-3.4908",
    "name": "Gathersnow Hill",
    "region": "dg",
    "unitaryAuthArea": "Scottish Borders"
  },
  {
    "alt": "295.0",
    "id": "355883",
    "lat": "55.48688",
    "lng": "-3.58746",
    "name": "Camps Reservoir",
    "region": "st",
    "unitaryAuthArea": "South Lanarkshire"
  },
  {
    "alt": "10.0",
    "id": "350191",
    "lat": "55.4585",
    "lng": "-4.6279",
    "name": "Ayr",
    "region": "st",
    "unitaryAuthArea": "South Ayrshire"
  },
  {
    "alt": "16.0",
    "id": "351046",
    "lat": "55.4311",
    "lng": "-4.6795",
    "name": "Craig Tara (Ayr)",
    "region": "st",
    "unitaryAuthArea": "South Ayrshire"
  },
  {
    "alt": "615.0",
    "id": "371421",
    "lat": "55.4172",
    "lng": "-2.1134",
    "name": "Cushat Law",
    "nationalPark": "Northumberland National Park",
    "region": "ne",
    "unitaryAuthArea": "Northumberland"
  },
  {
    "alt": "51.0",
    "id": "351156",
    "lat": "55.3972",
    "lng": "-4.5892",
    "name": "Dalrymple",
    "region": "st",
    "unitaryAuthArea": "East Ayrshire"
  },
  {
    "alt": "692.0",
    "id": "371449",
    "lat": "55.3562",
    "lng": "-3.2621",
    "name": "Ettrick Pen",
    "region": "dg",
    "unitaryAuthArea": "Dumfries and Galloway"
  },
  {
    "alt": "469.0",
    "id": "354884",
    "lat": "55.3384",
    "lng": "-2.3558",
    "name": "Windy Crag",
    "nationalPark": "Northumberland National Park",
    "region": "ne",
    "unitaryAuthArea": "Northumberland"
  },
  {
    "alt": "171.0",
    "id": "351153",
    "lat": "55.3239",
    "lng": "-4.3982",
    "name": "Dalmellington",
    "region": "st",
    "unitaryAuthArea": "East Ayrshire"
  },
  {
    "alt": "619.0",
    "id": "371391",
    "lat": "55.2972",
    "lng": "-2.856",
    "name": "Cauldcleuch Head",
    "region": "dg",
    "unitaryAuthArea": "Scottish Borders"
  },
  {
    "alt": "43.0",
    "id": "350243",
    "lat": "55.2651",
    "lng": "-4.7462",
    "name": "Bargany Gardens",
    "region": "st",
    "unitaryAuthArea": "South Ayrshire"
  },
  {
    "alt": "80.0",
    "id": "351559",
    "lat": "55.239",
    "lng": "-6.5061",
    "name": "Giant's Causeway",
    "region": "ni",
    "unitaryAuthArea": "County Antrim"
  },
  {
    "alt": "0.0",
    "id": "354427",
    "lat": "55.2063",
    "lng": "-6.6084",
    "name": "Portrush, Whiterocks (Beach)",
    "region": "ni",
    "unitaryAuthArea": "County Antrim"
  },
  {
    "alt": "0.0",
    "id": "354768",
    "lat": "55.1855",
    "lng": "-1.506",
    "name": "Newbiggin - North (Beach)",
    "region": "ne",
    "unitaryAuthArea": "Northumberland"
  },
  {
    "alt": "28.0",
    "id": "352685",
    "lat": "55.1687",
    "lng": "-1.6859",
    "name": "Morpeth",
    "region": "ne",
    "unitaryAuthArea": "Northumberland"
  },
  {
    "alt": "46.0",
    "id": "351151",
    "lat": "55.1544",
    "lng": "-4.8315",
    "name": "Daljarrock",
    "region": "st",
    "unitaryAuthArea": "South Ayrshire"
  },
  {
    "alt": "29.0",
    "id": "350395",
    "lat": "55.1385",
    "lng": "-6.5152",
    "name": "Benvarden",
    "region": "ni",
    "unitaryAuthArea": "County Antrim"
  },
  {
    "alt": "55.0",
    "id": "355884",
    "lat": "55.09904",
    "lng": "-4.18344",
    "name": "Glenlee",
    "region": "dg",
    "unitaryAuthArea": "Dumfries and Galloway"
  },
  {
    "alt": "20.0",
    "id": "351271",
    "lat": "55.0708",
    "lng": "-3.6038",
    "name": "Dumfries",
    "region": "dg",
    "unitaryAuthArea": "Dumfries and Galloway"
  },
  {
    "alt": "285.0",
    "id": "3224",
    "lat": "55.05",
    "lng": "-2.553",
    "name": "Spadeadam",
    "region": "nw",
    "unitaryAuthArea": "Cumbria"
  },
  {
    "alt": "1.0",
    "id": "350927",
    "lat": "55.0413",
    "lng": "-7.1576",
    "name": "City Of Derry Airport",
    "region": "ni",
    "unitaryAuthArea": "County Londonderry"
  },
  {
    "alt": "0.0",
    "id": "354764",
    "lat": "55.0238",
    "lng": "-1.4245",
    "name": "Tynemouth - Long Sands South (Beach)",
    "region": "ne",
    "unitaryAuthArea": "North Tyneside"
  },
  {
    "alt": "12.0",
    "id": "352436",
    "lat": "55.0092",
    "lng": "-2.9705",
    "name": "Longtown",
    "region": "nw",
    "unitaryAuthArea": "Cumbria"
  },
  {
    "alt": "30.0",
    "id": "353004",
    "lat": "54.9978",
    "lng": "-1.4736",
    "name": "Percy Main",
    "region": "ne",
    "unitaryAuthArea": "North Tyneside"
  },
  {
    "alt": "100.0",
    "id": "350484",
    "lat": "54.9913",
    "lng": "-1.6567",
    "name": "Blakelaw",
    "region": "ne",
    "unitaryAuthArea": "Newcastle upon Tyne"
  },
  {
    "alt": "13.0",
    "id": "352040",
    "lat": "54.9802",
    "lng": "-1.4812",
    "name": "Jarrow",
    "region": "ne",
    "unitaryAuthArea": "South Tyneside"
  },
  {
    "alt": "32.0",
    "id": "354056",
    "lat": "54.9745",
    "lng": "-1.5518",
    "name": "Walker",
    "region": "ne",
    "unitaryAuthArea": "Newcastle upon Tyne"
  },
  {
    "alt": "50.0",
    "id": "352653",
    "lat": "54.9647",
    "lng": "-4.4696",
    "name": "Minnigaff Youth Hostel",
    "region": "dg",
    "unitaryAuthArea": "Dumfries and Galloway"
  },
  {
    "alt": "8.0",
    "id": "352453",
    "lat": "54.9545",
    "lng": "-1.6271",
    "name": "Low Team",
    "region": "ne",
    "unitaryAuthArea": "Gateshead"
  },
  {
    "alt": "47.0",
    "id": "352768",
    "lat": "54.9433",
    "lng": "-4.8493",
    "name": "New Luce",
    "region": "dg",
    "unitaryAuthArea": "Dumfries and Galloway"
  },
  {
    "alt": "28.0",
    "id": "3220",
    "lat": "54.933",
    "lng": "-2.963",
    "name": "Carlisle",
    "region": "nw",
    "unitaryAuthArea": "Cumbria"
  },
  {
    "alt": "55.0",
    "id": "352150",
    "lat": "54.9144",
    "lng": "-4.6067",
    "name": "Kirkcowan",
    "region": "dg",
    "unitaryAuthArea": "Dumfries and Galloway"
  },
  {
    "alt": "10.0",
    "id": "350769",
    "lat": "54.8978",
    "lng": "-2.9445",
    "name": "Carlisle Snowsports Club",
    "region": "nw",
    "unitaryAuthArea": "Cumbria"
  },
  {
    "alt": "10.0",
    "id": "351548",
    "lat": "54.8824",
    "lng": "-4.1829",
    "name": "Gatehouse Of Fleet",
    "region": "dg",
    "unitaryAuthArea": "Dumfries and Galloway"
  },
  {
    "alt": "64.0",
    "id": "3915",
    "lat": "54.865",
    "lng": "-6.457",
    "name": "Portglenone Samos",
    "region": "ni",
    "unitaryAuthArea": "County Antrim"
  },
  {
    "alt": "238.0",
    "id": "350110",
    "lat": "54.8564",
    "lng": "-1.7308",
    "name": "Annfield Plain",
    "region": "ne",
    "unitaryAuthArea": "Durham"
  },
  {
    "alt": "71.0",
    "id": "352493",
    "lat": "54.8441",
    "lng": "-6.6727",
    "name": "Maghera",
    "region": "ni",
    "unitaryAuthArea": "County Londonderry"
  },
  {
    "alt": "87.0",
    "id": "351864",
    "lat": "54.8279",
    "lng": "-1.4527",
    "name": "Hetton-Le-Hole",
    "region": "ne",
    "unitaryAuthArea": "Sunderland"
  },
  {
    "alt": "299.0",
    "id": "350070",
    "lat": "54.8121",
    "lng": "-2.4372",
    "name": "Alston",
    "region": "nw",
    "unitaryAuthArea": "Cumbria"
  },
  {
    "alt": "101.0",
    "id": "353166",
    "lat": "54.7998",
    "lng": "-2.965",
    "name": "Raughton Head",
    "region": "nw",
    "unitaryAuthArea": "Cumbria"
  },
  {
    "alt": "22.0",
    "id": "350136",
    "lat": "54.7682",
    "lng": "-4.951",
    "name": "Ardwell House",
    "region": "dg",
    "unitaryAuthArea": "Dumfries and Galloway"
  },
  {
    "alt": "18.0",
    "id": "371666",
    "lat": "54.7512",
    "lng": "-6.4545",
    "name": "Toome Bridge",
    "region": "ni",
    "unitaryAuthArea": "County Antrim"
  },
  {
    "alt": "52.0",
    "id": "352408",
    "lat": "54.7354",
    "lng": "-4.9573",
    "name": "Logan Botanic Garden",
    "region": "dg",
    "unitaryAuthArea": "Dumfries and Galloway"
  },
  {
    "alt": "51.0",
    "id": "352833",
    "lat": "54.7184",
    "lng": "-7.3771",
    "name": "Newtownstewart",
    "region": "ni",
    "unitaryAuthArea": "County Tyrone"
  },
  {
    "alt": "696.0",
    "id": "371394",
    "lat": "54.7064",
    "lng": "-2.1931",
    "name": "Chapelfell Top",
    "region": "ne",
    "unitaryAuthArea": "Durham"
  },
  {
    "alt": "654.0",
    "id": "371590",
    "lat": "54.6926",
    "lng": "-2.0955",
    "name": "Outberry Plain",
    "region": "ne",
    "unitaryAuthArea": "Durham"
  },
  {
    "alt": "690.0",
    "id": "371480",
    "lat": "54.6708",
    "lng": "-3.0994",
    "name": "Great Calva",
    "nationalPark": "Lake District National Park",
    "region": "nw",
    "unitaryAuthArea": "Cumbria"
  },
  {
    "alt": "44.0",
    "id": "350970",
    "lat": "54.6631",
    "lng": "-3.3666",
    "name": "Cockermouth",
    "region": "nw",
    "unitaryAuthArea": "Cumbria"
  },
  {
    "alt": "39.0",
    "id": "350234",
    "lat": "54.6509",
    "lng": "-5.6662",
    "name": "Bangor Castle",
    "region": "ni",
    "unitaryAuthArea": "County Down"
  },
  {
    "alt": "141.0",
    "id": "353492",
    "lat": "54.6333",
    "lng": "-1.6534",
    "name": "Shildon",
    "region": "ne",
    "unitaryAuthArea": "Durham"
  },
  {
    "alt": "790.0",
    "id": "371561",
    "lat": "54.6156",
    "lng": "-2.3003",
    "name": "Mickle Fell",
    "region": "ne",
    "unitaryAuthArea": "Durham"
  },
  {
    "alt": "4.0",
    "id": "353798",
    "lat": "54.6104",
    "lng": "-5.8659",
    "name": "Sydenham",
    "region": "ni",
    "unitaryAuthArea": "County Antrim"
  },
  {
    "alt": "748.0",
    "id": "371539",
    "lat": "54.5953",
    "lng": "-2.3389",
    "name": "Little Fell",
    "region": "nw",
    "unitaryAuthArea": "Cumbria"
  },
  {
    "alt": "52.0",
    "id": "353344",
    "lat": "54.5814",
    "lng": "-0.9735",
    "name": "Saltburn-By-The-Sea",
    "region": "ne",
    "unitaryAuthArea": "Redcar and Cleveland"
  },
  {
    "alt": "227.0",
    "id": "3226",
    "lat": "54.572",
    "lng": "-2.413",
    "name": "Warcop",
    "region": "nw",
    "unitaryAuthArea": "Cumbria"
  },
  {
    "alt": "464.0",
    "id": "353878",
    "lat": "54.5596",
    "lng": "-3.0423",
    "name": "Thirlmere Youth Hostel",
    "nationalPark": "Lake District National Park",
    "region": "nw",
    "unitaryAuthArea": "Cumbria"
  },
  {
    "alt": "3.0",
    "id": "322948",
    "lat": "54.5496",
    "lng": "-3.5879",
    "name": "Whitehaven",
    "region": "nw",
    "unitaryAuthArea": "Cumbria"
  },
  {
    "alt": "95.0",
    "id": "351699",
    "lat": "54.5361",
    "lng": "-1.0479",
    "name": "Guisborough",
    "region": "ne",
    "unitaryAuthArea": "Redcar and Cleveland"
  },
  {
    "alt": "91.0",
    "id": "350944",
    "lat": "54.5218",
    "lng": "-3.5158",
    "name": "Cleator Moor",
    "region": "nw",
    "unitaryAuthArea": "Cumbria"
  },
  {
    "alt": "40.0",
    "id": "352300",
    "lat": "54.5114",
    "lng": "-6.0494",
    "name": "Lisburn",
    "region": "ni",
    "unitaryAuthArea": "County Antrim"
  },
  {
    "alt": "726.0",
    "id": "371670",
    "lat": "54.4998",
    "lng": "-3.0941",
    "name": "Ullscarf",
    "nationalPark": "Lake District National Park",
    "region": "nw",
    "unitaryAuthArea": "Cumbria"
  },
  {
    "alt": "87.0",
    "id": "351656",
    "lat": "54.4909",
    "lng": "-1.1386",
    "name": "Great Ayton",
    "region": "yh",
    "unitaryAuthArea": "North Yorkshire"
  },
  {
    "alt": "54.0",
    "id": "350816",
    "lat": "54.4843",
    "lng": "-7.9792",
    "name": "Castle Caldwell",
    "region": "ni",
    "unitaryAuthArea": "County Fermanagh"
  },
  {
    "alt": "170.0",
    "id": "352147",
    "lat": "54.4741",
    "lng": "-2.3475",
    "name": "Kirkby Stephen",
    "region": "nw",
    "unitaryAuthArea": "Cumbria"
  },
  {
    "alt": "910.0",
    "id": "371482",
    "lat": "54.4646",
    "lng": "-3.1934",
    "name": "Great End",
    "nationalPark": "Lake District National Park",
    "region": "nw",
    "unitaryAuthArea": "Cumbria"
  },
  {
    "alt": "757.0",
    "id": "371519",
    "lat": "54.4619",
    "lng": "-2.8694",
    "name": "Ill Bell",
    "nationalPark": "Lake District National Park",
    "region": "nw",
    "unitaryAuthArea": "Cumbria"
  },
  {
    "alt": "902.0",
    "id": "371368",
    "lat": "54.4477",
    "lng": "-3.1648",
    "name": "Bow Fell",
    "nationalPark": "Lake District National Park",
    "region": "nw",
    "unitaryAuthArea": "Cumbria"
  },
  {
    "alt": "87.0",
    "id": "351378",
    "lat": "54.4323",
    "lng": "-3.0385",
    "name": "Elterwater Youth Hostel",
    "nationalPark": "Lake District National Park",
    "region": "nw",
    "unitaryAuthArea": "Cumbria"
  },
  {
    "alt": "182.0",
    "id": "353636",
    "lat": "54.4198",
    "lng": "-2.9504",
    "name": "Stagshaw Garden",
    "nationalPark": "Lake District National Park",
    "region": "nw",
    "unitaryAuthArea": "Cumbria"
  },
  {
    "alt": "137.0",
    "id": "354843",
    "lat": "54.405",
    "lng": "-1.7402",
    "name": "Richmond",
    "nationalPark": "Yorkshire Dales National Park",
    "region": "yh",
    "unitaryAuthArea": "North Yorkshire"
  },
  {
    "alt": "47.0",
    "id": "3903",
    "lat": "54.4",
    "lng": "-7.65",
    "name": "St Angelo",
    "region": "ni",
    "unitaryAuthArea": "County Fermanagh"
  },
  {
    "alt": "708.0",
    "id": "354840",
    "lat": "54.3843",
    "lng": "-2.374",
    "name": "Wild Boar Fell",
    "nationalPark": "Yorkshire Dales National Park",
    "region": "nw",
    "unitaryAuthArea": "Cumbria"
  },
  {
    "alt": "93.0",
    "id": "353827",
    "lat": "54.3765",
    "lng": "-7.4616",
    "name": "Tempo",
    "region": "ni",
    "unitaryAuthArea": "County Fermanagh"
  },
  {
    "alt": "57.0",
    "id": "350998",
    "lat": "54.3689",
    "lng": "-3.0745",
    "name": "Coniston",
    "nationalPark": "Lake District National Park",
    "region": "nw",
    "unitaryAuthArea": "Cumbria"
  },
  {
    "alt": "55.0",
    "id": "350229",
    "lat": "54.3518",
    "lng": "-6.2659",
    "name": "Banbridge",
    "region": "ni",
    "unitaryAuthArea": "County Down"
  },
  {
    "alt": "103.0",
    "id": "354915",
    "lat": "54.3407",
    "lng": "-3.0231",
    "name": "Grizedale Forest Visitor Centre",
    "nationalPark": "Lake District National Park",
    "region": "nw",
    "unitaryAuthArea": "Cumbria"
  },
  {
    "alt": "85.0",
    "id": "352070",
    "lat": "54.3253",
    "lng": "-2.7336",
    "name": "Kendal Ski Club",
    "region": "nw",
    "unitaryAuthArea": "Cumbria"
  },
  {
    "alt": "74.0",
    "id": "350643",
    "lat": "54.3141",
    "lng": "-7.4058",
    "name": "Brookeborough",
    "region": "ni",
    "unitaryAuthArea": "County Fermanagh"
  },
  {
    "alt": "192.0",
    "id": "354950",
    "lat": "54.3013",
    "lng": "-2.0382",
    "name": "Wensleydale",
    "nationalPark": "Yorkshire Dales National Park",
    "region": "yh",
    "unitaryAuthArea": "North Yorkshire"
  },
  {
    "alt": "187.0",
    "id": "350195",
    "lat": "54.2913",
    "lng": "-1.9756",
    "name": "Aysgarth Falls Youth Hostel",
    "nationalPark": "Yorkshire Dales National Park",
    "region": "yh",
    "unitaryAuthArea": "North Yorkshire"
  },
  {
    "alt": "614.0",
    "id": "371678",
    "lat": "54.2757",
    "lng": "-2.1939",
    "name": "Wether Fell",
    "nationalPark": "Yorkshire Dales National Park",
    "region": "yh",
    "unitaryAuthArea": "North Yorkshire"
  },
  {
    "alt": "87.0",
    "id": "351485",
    "lat": "54.257",
    "lng": "-7.7303",
    "name": "Florence Court (Nt)",
    "region": "ni",
    "unitaryAuthArea": "County Fermanagh"
  },
  {
    "alt": "59.0",
    "id": "354955",
    "lat": "54.2469",
    "lng": "-1.0621",
    "name": "Helmsley",
    "nationalPark": "North York Moors National Park",
    "region": "yh",
    "unitaryAuthArea": "North Yorkshire"
  },
  {
    "alt": "326.0",
    "id": "351486",
    "lat": "54.237",
    "lng": "-7.7523",
    "name": "Florence Court Forest Park",
    "region": "ni",
    "unitaryAuthArea": "County Fermanagh"
  },
  {
    "alt": "103.0",
    "id": "352230",
    "lat": "54.2283",
    "lng": "-4.4035",
    "name": "Laxey",
    "region": "nw"
  },
  {
    "alt": "110.0",
    "id": "354853",
    "lat": "54.2185",
    "lng": "-5.9457",
    "name": "Tolleymore Forest Park",
    "nationalPark": "The Mournes",
    "region": "ni",
    "unitaryAuthArea": "County Down"
  },
  {
    "alt": "77.0",
    "id": "352146",
    "lat": "54.2048",
    "lng": "-2.6003",
    "name": "Kirkby Lonsdale",
    "region": "nw",
    "unitaryAuthArea": "Cumbria"
  },
  {
    "alt": "19.0",
    "id": "354017",
    "lat": "54.195",
    "lng": "-3.0913",
    "name": "Ulverston",
    "region": "nw",
    "unitaryAuthArea": "Cumbria"
  },
  {
    "alt": "305.0",
    "id": "354936",
    "lat": "54.1847",
    "lng": "-2.1848",
    "name": "Halton Gill",
    "nationalPark": "Yorkshire Dales National Park",
    "region": "yh",
    "unitaryAuthArea": "North Yorkshire"
  },
  {
    "alt": "507.0",
    "id": "371399",
    "lat": "54.1736",
    "lng": "-6.0778",
    "name": "Cock Mountain",
    "region": "ni",
    "unitaryAuthArea": "County Down"
  },
  {
    "alt": "674.0",
    "id": "371641",
    "lat": "54.1599",
    "lng": "-6.0393",
    "name": "Slieve Much",
    "region": "ni",
    "unitaryAuthArea": "County Down"
  },
  {
    "alt": "213.0",
    "id": "354924",
    "lat": "54.1422",
    "lng": "-2.1059",
    "name": "Arncliffe",
    "nationalPark": "Yorkshire Dales National Park",
    "region": "yh",
    "unitaryAuthArea": "North Yorkshire"
  },
  {
    "alt": "163.0",
    "id": "353516",
    "lat": "54.1242",
    "lng": "-6.007",
    "name": "Silent Valley",
    "nationalPark": "The Mournes",
    "region": "ni",
    "unitaryAuthArea": "County Down"
  },
  {
    "alt": "9.0",
    "id": "310023",
    "lat": "54.1088",
    "lng": "-3.2175",
    "name": "Barrow-In-Furness",
    "region": "nw",
    "unitaryAuthArea": "Cumbria"
  },
  {
    "alt": "14.0",
    "id": "350517",
    "lat": "54.0961",
    "lng": "-1.3928",
    "name": "Boroughbridge",
    "region": "yh",
    "unitaryAuthArea": "North Yorkshire"
  },
  {
    "alt": "16.0",
    "id": "353074",
    "lat": "54.0847",
    "lng": "-4.7573",
    "name": "Port Erin",
    "region": "nw"
  },
  {
    "alt": "27.0",
    "id": "353778",
    "lat": "54.07",
    "lng": "-1.1067",
    "name": "Sutton Park",
    "region": "yh",
    "unitaryAuthArea": "North Yorkshire"
  },
  {
    "alt": "222.0",
    "id": "352297",
    "lat": "54.0563",
    "lng": "-1.9981",
    "name": "Linton Youth Hostel",
    "nationalPark": "Yorkshire Dales National Park",
    "region": "yh",
    "unitaryAuthArea": "North Yorkshire"
  },
  {
    "alt": "189.0",
    "id": "354945",
    "lat": "54.0236",
    "lng": "-2.0478",
    "name": "Rylstone",
    "nationalPark": "Yorkshire Dales National Park",
    "region": "yh",
    "unitaryAuthArea": "North Yorkshire"
  },
  {
    "alt": "0.0",
    "id": "354745",
    "lat": "53.9902",
    "lng": "-0.2049",
    "name": "Skipsea (Beach)",
    "region": "yh",
    "unitaryAuthArea": "East Riding of Yorkshire"
  },
  {
    "alt": "34.0",
    "id": "350207",
    "lat": "53.9562",
    "lng": "-0.531",
    "name": "Bainton",
    "region": "yh",
    "unitaryAuthArea": "East Riding of Yorkshire"
  },
  {
    "alt": "67.0",
    "id": "352780",
    "lat": "53.9133",
    "lng": "-1.6896",
    "name": "Newall",
    "region": "yh",
    "unitaryAuthArea": "West Yorkshire"
  },
  {
    "alt": "0.0",
    "id": "354337",
    "lat": "53.8939",
    "lng": "-2.996",
    "name": "Wyre",
    "region": "nw",
    "unitaryAuthArea": "Lancashire"
  },
  {
    "alt": "557.0",
    "id": "371596",
    "lat": "53.8683",
    "lng": "-2.2971",
    "name": "Pendle Hill",
    "region": "nw",
    "unitaryAuthArea": "Lancashire"
  },
  {
    "alt": "194.0",
    "id": "351367",
    "lat": "53.8577",
    "lng": "-1.8164",
    "name": "Eldwick",
    "region": "yh",
    "unitaryAuthArea": "West Yorkshire"
  },
  {
    "alt": "136.0",
    "id": "350737",
    "lat": "53.8516",
    "lng": "-1.5531",
    "name": "Camp Town",
    "region": "yh",
    "unitaryAuthArea": "West Yorkshire"
  },
  {
    "alt": "126.0",
    "id": "353837",
    "lat": "53.8427",
    "lng": "-1.7328",
    "name": "Thackley",
    "region": "yh",
    "unitaryAuthArea": "West Yorkshire"
  },
  {
    "alt": "68.0",
    "id": "353494",
    "lat": "53.8357",
    "lng": "-1.7755",
    "name": "Shipley",
    "region": "yh",
    "unitaryAuthArea": "West Yorkshire"
  },
  {
    "alt": "131.0",
    "id": "352433",
    "lat": "53.8317",
    "lng": "-2.5974",
    "name": "Longridge",
    "region": "nw",
    "unitaryAuthArea": "Lancashire"
  },
  {
    "alt": "198.0",
    "id": "350237",
    "lat": "53.8254",
    "lng": "-1.7374",
    "name": "Bank Top",
    "region": "yh",
    "unitaryAuthArea": "West Yorkshire"
  },
  {
    "alt": "68.0",
    "id": "353386",
    "lat": "53.8205",
    "lng": "-1.4711",
    "name": "Seacroft",
    "region": "yh",
    "unitaryAuthArea": "West Yorkshire"
  },
  {
    "alt": "224.0",
    "id": "353364",
    "lat": "53.8142",
    "lng": "-1.8343",
    "name": "Sandy Lane",
    "region": "yh",
    "unitaryAuthArea": "West Yorkshire"
  },
  {
    "alt": "215.0",
    "id": "351144",
    "lat": "53.8062",
    "lng": "-1.8148",
    "name": "Daisy Hill",
    "region": "yh",
    "unitaryAuthArea": "West Yorkshire"
  },
  {
    "alt": "110.0",
    "id": "351951",
    "lat": "53.7987",
    "lng": "-1.6365",
    "name": "Hough End",
    "region": "yh",
    "unitaryAuthArea": "West Yorkshire"
  },
  {
    "alt": "66.0",
    "id": "351541",
    "lat": "53.7919",
    "lng": "-1.3883",
    "name": "Garforth",
    "region": "yh",
    "unitaryAuthArea": "West Yorkshire"
  },
  {
    "alt": "47.0",
    "id": "351444",
    "lat": "53.7869",
    "lng": "-1.6061",
    "name": "Farnley",
    "region": "yh",
    "unitaryAuthArea": "West Yorkshire"
  },
  {
    "alt": "99.0",
    "id": "324244",
    "lat": "53.7817",
    "lng": "-2.3988",
    "name": "Great Harwood",
    "region": "nw",
    "unitaryAuthArea": "Lancashire"
  },
  {
    "alt": "73.0",
    "id": "350300",
    "lat": "53.7738",
    "lng": "-1.5636",
    "name": "Beeston (West Yorkshire)",
    "region": "yh",
    "unitaryAuthArea": "West Yorkshire"
  },
  {
    "alt": "210.0",
    "id": "353941",
    "lat": "53.7682",
    "lng": "-1.7096",
    "name": "Tong Street",
    "region": "yh",
    "unitaryAuthArea": "West Yorkshire"
  },
  {
    "alt": "138.0",
    "id": "350023",
    "lat": "53.7534",
    "lng": "-2.3707",
    "name": "Accrington",
    "region": "nw",
    "unitaryAuthArea": "Lancashire"
  },
  {
    "alt": "106.0",
    "id": "352625",
    "lat": "53.7477",
    "lng": "-1.5239",
    "name": "Middleton (West Yorkshire)",
    "region": "yh",
    "unitaryAuthArea": "West Yorkshire"
  },
  {
    "alt": "105.0",
    "id": "352733",
    "lat": "53.7425",
    "lng": "-2.0227",
    "name": "Mytholm",
    "region": "yh",
    "unitaryAuthArea": "West Yorkshire"
  },
  {
    "alt": "40.0",
    "id": "354178",
    "lat": "53.7303",
    "lng": "-1.3158",
    "name": "Wheldale",
    "region": "yh",
    "unitaryAuthArea": "West Yorkshire"
  },
  {
    "alt": "19.0",
    "id": "324171",
    "lat": "53.7232",
    "lng": "-1.3444",
    "name": "Castleford",
    "region": "yh",
    "unitaryAuthArea": "West Yorkshire"
  },
  {
    "alt": "17.0",
    "id": "352178",
    "lat": "53.7069",
    "lng": "-1.2422",
    "name": "Knottingley",
    "region": "yh",
    "unitaryAuthArea": "West Yorkshire"
  },
  {
    "alt": "2.0",
    "id": "322572",
    "lat": "53.7",
    "lng": "-0.37",
    "name": "New Holland",
    "region": "yh",
    "unitaryAuthArea": "North Lincolnshire"
  },
  {
    "alt": "37.0",
    "id": "351204",
    "lat": "53.6896",
    "lng": "-1.6282",
    "name": "Dewsbury",
    "region": "yh",
    "unitaryAuthArea": "West Yorkshire"
  },
  {
    "alt": "48.0",
    "id": "353887",
    "lat": "53.6722",
    "lng": "-1.6239",
    "name": "Thornhill Lees",
    "region": "yh",
    "unitaryAuthArea": "West Yorkshire"
  },
  {
    "alt": "82.0",
    "id": "350913",
    "lat": "53.6533",
    "lng": "-2.6312",
    "name": "Chorley",
    "region": "nw",
    "unitaryAuthArea": "Lancashire"
  },
  {
    "alt": "4.0",
    "id": "353604",
    "lat": "53.6455",
    "lng": "-3.0087",
    "name": "Southport",
    "region": "nw",
    "unitaryAuthArea": "Merseyside"
  },
  {
    "alt": "179.0",
    "id": "352839",
    "lat": "53.6262",
    "lng": "-2.2199",
    "name": "Norden",
    "region": "nw",
    "unitaryAuthArea": "Greater Manchester"
  },
  {
    "alt": "466.0",
    "id": "371572",
    "lat": "53.6149",
    "lng": "-2.0141",
    "name": "Moss Moor",
    "region": "nw",
    "unitaryAuthArea": "Greater Manchester"
  },
  {
    "alt": "4.0",
    "id": "353883",
    "lat": "53.6084",
    "lng": "-0.9595",
    "name": "Thorne",
    "region": "yh",
    "unitaryAuthArea": "South Yorkshire"
  },
  {
    "alt": "130.0",
    "id": "351775",
    "lat": "53.6022",
    "lng": "-2.3802",
    "name": "Harwood",
    "region": "nw",
    "unitaryAuthArea": "Greater Manchester"
  },
  {
    "alt": "130.0",
    "id": "352543",
    "lat": "53.5991",
    "lng": "-2.1892",
    "name": "Marland",
    "region": "nw",
    "unitaryAuthArea": "Greater Manchester"
  },
  {
    "alt": "120.0",
    "id": "351870",
    "lat": "53.5924",
    "lng": "-2.2242",
    "name": "Heywood",
    "region": "nw",
    "unitaryAuthArea": "Greater Manchester"
  },
  {
    "alt": "6.0",
    "id": "353382",
    "lat": "53.5878",
    "lng": "-0.6951",
    "name": "Scunthorpe United F.C.",
    "region": "yh",
    "unitaryAuthArea": "North Lincolnshire"
  },
  {
    "alt": "74.0",
    "id": "351563",
    "lat": "53.5822",
    "lng": "-2.2846",
    "name": "Gigg",
    "region": "nw",
    "unitaryAuthArea": "Greater Manchester"
  },
  {
    "alt": "99.0",
    "id": "350554",
    "lat": "53.5745",
    "lng": "-2.3679",
    "name": "Bradley Fold",
    "region": "nw",
    "unitaryAuthArea": "Greater Manchester"
  },
  {
    "alt": "28.0",
    "id": "350041",
    "lat": "53.5673",
    "lng": "-1.1932",
    "name": "Adwick Le Street",
    "region": "yh",
    "unitaryAuthArea": "South Yorkshire"
  },
  {
    "alt": "140.0",
    "id": "351173",
    "lat": "53.5627",
    "lng": "-2.4541",
    "name": "Daubhill",
    "region": "nw",
    "unitaryAuthArea": "Greater Manchester"
  },
  {
    "alt": "84.0",
    "id": "352691",
    "lat": "53.557",
    "lng": "-2.4011",
    "name": "Moses Gate",
    "region": "nw",
    "unitaryAuthArea": "Greater Manchester"
  },
  {
    "alt": "36.0",
    "id": "352550",
    "lat": "53.5504",
    "lng": "-2.6741",
    "name": "Marsh Green",
    "region": "nw",
    "unitaryAuthArea": "Greater Manchester"
  },
  {
    "alt": "60.0",
    "id": "353710",
    "lat": "53.5452",
    "lng": "-2.3729",
    "name": "Stoneclough",
    "region": "nw",
    "unitaryAuthArea": "Greater Manchester"
  },
  {
    "alt": "28.0",
    "id": "352829",
    "lat": "53.5434",
    "lng": "-2.6563",
    "name": "Newtown (Nr Wigan)",
    "region": "nw",
    "unitaryAuthArea": "Greater Manchester"
  },
  {
    "alt": "0.0",
    "id": "354741",
    "lat": "53.5353",
    "lng": "0.0081",
    "name": "Humberston Fitties (Beach)",
    "region": "em",
    "unitaryAuthArea": "North East Lincolnshire"
  },
  {
    "alt": "90.0",
    "id": "351885",
    "lat": "53.5307",
    "lng": "-2.2242",
    "name": "Higher Blackley",
    "region": "nw",
    "unitaryAuthArea": "Greater Manchester"
  },
  {
    "alt": "58.0",
    "id": "350171",
    "lat": "53.5238",
    "lng": "-2.4908",
    "name": "Atherton",
    "region": "nw",
    "unitaryAuthArea": "Greater Manchester"
  },
  {
    "alt": "80.0",
    "id": "354080",
    "lat": "53.5189",
    "lng": "-2.3606",
    "name": "Wardley",
    "region": "nw",
    "unitaryAuthArea": "Greater Manchester"
  },
  {
    "alt": "68.0",
    "id": "353794",
    "lat": "53.5119",
    "lng": "-2.3398",
    "name": "Swinton (Greater Manchester)",
    "region": "nw",
    "unitaryAuthArea": "Greater Manchester"
  },
  {
    "alt": "53.0",
    "id": "352673",
    "lat": "53.5063",
    "lng": "-2.3405",
    "name": "Moorside (Nr Salford)",
    "region": "nw",
    "unitaryAuthArea": "Greater Manchester"
  },
  {
    "alt": "81.0",
    "id": "352825",
    "lat": "53.4993",
    "lng": "-2.1832",
    "name": "Newton Heath",
    "region": "nw",
    "unitaryAuthArea": "Greater Manchester"
  },
  {
    "alt": "13.0",
    "id": "352755",
    "lat": "53.4953",
    "lng": "-2.9677",
    "name": "Netherton",
    "region": "nw",
    "unitaryAuthArea": "Merseyside"
  },
  {
    "alt": "139.0",
    "id": "352637",
    "lat": "53.4909",
    "lng": "-2.0305",
    "name": "Millbrook (Greater Manchester)",
    "region": "nw",
    "unitaryAuthArea": "Greater Manchester"
  },
  {
    "alt": "40.0",
    "id": "353339",
    "lat": "53.4882",
    "lng": "-2.2969",
    "name": "Salford",
    "region": "nw",
    "unitaryAuthArea": "Greater Manchester"
  },
  {
    "alt": "163.0",
    "id": "353699",
    "lat": "53.4825",
    "lng": "-1.5922",
    "name": "Stocksbridge",
    "region": "yh",
    "unitaryAuthArea": "South Yorkshire"
  },
  {
    "alt": "42.0",
    "id": "351802",
    "lat": "53.4787",
    "lng": "-2.6223",
    "name": "Haydock Park Racecourse",
    "region": "nw",
    "unitaryAuthArea": "Merseyside"
  },
  {
    "alt": "22.0",
    "id": "352973",
    "lat": "53.4745",
    "lng": "-2.3806",
    "name": "Peel Green",
    "region": "nw",
    "unitaryAuthArea": "Greater Manchester"
  },
  {
    "alt": "387.0",
    "id": "351960",
    "lat": "53.4688",
    "lng": "-1.7567",
    "name": "Howden Moors",
    "nationalPark": "Peak District National Park",
    "region": "yh",
    "unitaryAuthArea": "South Yorkshire"
  },
  {
    "alt": "65.0",
    "id": "351634",
    "lat": "53.4626",
    "lng": "-2.1758",
    "name": "Gorton",
    "region": "nw",
    "unitaryAuthArea": "Greater Manchester"
  },
  {
    "alt": "29.0",
    "id": "351632",
    "lat": "53.4562",
    "lng": "-2.2905",
    "name": "Gorse Hill",
    "region": "nw",
    "unitaryAuthArea": "Greater Manchester"
  },
  {
    "alt": "30.0",
    "id": "351123",
    "lat": "53.4517",
    "lng": "-2.5212",
    "name": "Culcheth",
    "region": "nw",
    "unitaryAuthArea": "Warrington"
  },
  {
    "alt": "12.0",
    "id": "350514",
    "lat": "53.443",
    "lng": "-2.9975",
    "name": "Bootle",
    "region": "nw",
    "unitaryAuthArea": "Merseyside"
  },
  {
    "alt": "183.0",
    "id": "351686",
    "lat": "53.439",
    "lng": "-1.4955",
    "name": "Grenoside",
    "region": "yh",
    "unitaryAuthArea": "South Yorkshire"
  },
  {
    "alt": "512.0",
    "id": "371647",
    "lat": "53.4326",
    "lng": "-1.8673",
    "name": "Snake Pass",
    "nationalPark": "Peak District National Park",
    "region": "em",
    "unitaryAuthArea": "Derbyshire"
  },
  {
    "alt": "105.0",
    "id": "354295",
    "lat": "53.4301",
    "lng": "-2.0938",
    "name": "Woodley",
    "region": "nw",
    "unitaryAuthArea": "Greater Manchester"
  },
  {
    "alt": "24.0",
    "id": "353337",
    "lat": "53.4253",
    "lng": "-2.3223",
    "name": "Sale",
    "region": "nw",
    "unitaryAuthArea": "Greater Manchester"
  },
  {
    "alt": "158.0",
    "id": "352450",
    "lat": "53.4222",
    "lng": "-1.6027",
    "name": "Low Bradfield",
    "nationalPark": "Peak District National Park",
    "region": "yh",
    "unitaryAuthArea": "South Yorkshire"
  },
  {
    "alt": "0.0",
    "id": "354780",
    "lat": "53.4163",
    "lng": "-3.1191",
    "name": "Moreton (Beach)",
    "region": "nw",
    "unitaryAuthArea": "Merseyside"
  },
  {
    "alt": "181.0",
    "id": "354048",
    "lat": "53.4133",
    "lng": "-1.5221",
    "name": "Wadsley",
    "region": "yh",
    "unitaryAuthArea": "South Yorkshire"
  },
  {
    "alt": "42.0",
    "id": "350742",
    "lat": "53.4109",
    "lng": "-1.3582",
    "name": "Canklow",
    "region": "yh",
    "unitaryAuthArea": "South Yorkshire"
  },
  {
    "alt": "107.0",
    "id": "351900",
    "lat": "53.4077",
    "lng": "-1.5068",
    "name": "Hillsborough (South Yorkshire)",
    "region": "yh",
    "unitaryAuthArea": "South Yorkshire"
  },
  {
    "alt": "55.0",
    "id": "351349",
    "lat": "53.4013",
    "lng": "-2.9512",
    "name": "Edge Hill",
    "region": "nw",
    "unitaryAuthArea": "Merseyside"
  },
  {
    "alt": "142.0",
    "id": "352547",
    "lat": "53.3971",
    "lng": "-2.0602",
    "name": "Marple",
    "region": "nw",
    "unitaryAuthArea": "Greater Manchester"
  },
  {
    "alt": "35.0",
    "id": "353249",
    "lat": "53.3941",
    "lng": "-2.298",
    "name": "Roundthorn",
    "region": "nw",
    "unitaryAuthArea": "Greater Manchester"
  },
  {
    "alt": "8.0",
    "id": "350443",
    "lat": "53.3898",
    "lng": "-3.0216",
    "name": "Birkenhead",
    "region": "nw",
    "unitaryAuthArea": "Merseyside"
  },
  {
    "alt": "636.0",
    "id": "371662",
    "lat": "53.3849",
    "lng": "-1.8684",
    "name": "The Peak",
    "nationalPark": "Peak District National Park",
    "region": "em",
    "unitaryAuthArea": "Derbyshire"
  },
  {
    "alt": "632.0",
    "id": "371526",
    "lat": "53.3801",
    "lng": "-1.8812",
    "name": "Kinder Low",
    "nationalPark": "Peak District National Park",
    "region": "em",
    "unitaryAuthArea": "Derbyshire"
  },
  {
    "alt": "58.0",
    "id": "354311",
    "lat": "53.375",
    "lng": "-2.8638",
    "name": "Woolton",
    "region": "nw",
    "unitaryAuthArea": "Merseyside"
  },
  {
    "alt": "197.0",
    "id": "353162",
    "lat": "53.3716",
    "lng": "-1.525",
    "name": "Ranmoor",
    "region": "yh",
    "unitaryAuthArea": "South Yorkshire"
  },
  {
    "alt": "30.0",
    "id": "350063",
    "lat": "53.3669",
    "lng": "-2.8925",
    "name": "Allerton (Merseyside)",
    "region": "nw",
    "unitaryAuthArea": "Merseyside"
  },
  {
    "alt": "476.0",
    "id": "371546",
    "lat": "53.3648",
    "lng": "-1.7694",
    "name": "Lose Hill",
    "nationalPark": "Peak District National Park",
    "region": "em",
    "unitaryAuthArea": "Derbyshire"
  },
  {
    "alt": "136.0",
    "id": "352769",
    "lat": "53.3616",
    "lng": "-1.9993",
    "name": "New Mills",
    "region": "em",
    "unitaryAuthArea": "Derbyshire"
  },
  {
    "alt": "163.0",
    "id": "352009",
    "lat": "53.3595",
    "lng": "-1.4086",
    "name": "Intake",
    "region": "yh",
    "unitaryAuthArea": "South Yorkshire"
  },
  {
    "alt": "79.0",
    "id": "351565",
    "lat": "53.3562",
    "lng": "-2.201",
    "name": "Gilbent",
    "region": "nw",
    "unitaryAuthArea": "Greater Manchester"
  },
  {
    "alt": "0.0",
    "id": "354796",
    "lat": "53.351",
    "lng": "-4.2352",
    "name": "Moelfre (Beach)",
    "region": "wl",
    "unitaryAuthArea": "Isle of Anglesey"
  },
  {
    "alt": "166.0",
    "id": "351588",
    "lat": "53.348",
    "lng": "-1.4189",
    "name": "Gleadless Townend",
    "region": "yh",
    "unitaryAuthArea": "South Yorkshire"
  },
  {
    "alt": "2.0",
    "id": "352487",
    "lat": "53.3406",
    "lng": "0.2628",
    "name": "Mablethorpe",
    "region": "em",
    "unitaryAuthArea": "Lincolnshire"
  },
  {
    "alt": "22.0",
    "id": "26",
    "lat": "53.3336",
    "lng": "-2.85",
    "name": "Liverpool John Lennon Airport",
    "region": "nw",
    "unitaryAuthArea": "Merseyside"
  },
  {
    "alt": "89.0",
    "id": "351862",
    "lat": "53.3281",
    "lng": "-3.0974",
    "name": "Heswall",
    "region": "nw",
    "unitaryAuthArea": "Merseyside"
  },
  {
    "alt": "49.0",
    "id": "350386",
    "lat": "53.3216",
    "lng": "-4.2246",
    "name": "Benllech",
    "region": "wl",
    "unitaryAuthArea": "Isle of Anglesey"
  },
  {
    "alt": "208.0",
    "id": "350557",
    "lat": "53.3166",
    "lng": "-1.5073",
    "name": "Bradway",
    "region": "yh",
    "unitaryAuthArea": "South Yorkshire"
  },
  {
    "alt": "9.0",
    "id": "353770",
    "lat": "53.3099",
    "lng": "-0.8089",
    "name": "Sundown Adventure Land Rampton",
    "region": "em",
    "unitaryAuthArea": "Nottinghamshire"
  },
  {
    "alt": "133.0",
    "id": "351252",
    "lat": "53.302",
    "lng": "-1.4664",
    "name": "Dronfield",
    "region": "em",
    "unitaryAuthArea": "Derbyshire"
  },
  {
    "alt": "0.0",
    "id": "354789",
    "lat": "53.2941",
    "lng": "-3.6996",
    "name": "Old Colwyn (Beach)",
    "region": "wl",
    "unitaryAuthArea": "Conwy"
  },
  {
    "alt": "4.0",
    "id": "350008",
    "lat": "53.289",
    "lng": "-3.8456",
    "name": "Aberconwy House",
    "region": "wl",
    "unitaryAuthArea": "Conwy"
  },
  {
    "alt": "6.0",
    "id": "354848",
    "lat": "53.28",
    "lng": "-3.8257",
    "name": "Conwy Castle",
    "nationalPark": "Snowdonia National Park",
    "region": "wl",
    "unitaryAuthArea": "Conwy"
  },
  {
    "alt": "72.0",
    "id": "353664",
    "lat": "53.2694",
    "lng": "-1.3489",
    "name": "Staveley",
    "region": "em",
    "unitaryAuthArea": "Derbyshire"
  },
  {
    "alt": "299.0",
    "id": "324051",
    "lat": "53.2588",
    "lng": "-1.9134",
    "name": "Buxton",
    "region": "em",
    "unitaryAuthArea": "Derbyshire"
  },
  {
    "alt": "12.0",
    "id": "351483",
    "lat": "53.248",
    "lng": "-3.1344",
    "name": "Flint",
    "region": "wl",
    "unitaryAuthArea": "Flintshire"
  },
  {
    "alt": "58.0",
    "id": "350235",
    "lat": "53.2292",
    "lng": "-4.1134",
    "name": "Bangor Youth Hostel",
    "region": "wl",
    "unitaryAuthArea": "Gwynedd"
  },
  {
    "alt": "0.0",
    "id": "354808",
    "lat": "53.2219",
    "lng": "-4.5138",
    "name": "Rhosneigr (Beach)",
    "region": "wl",
    "unitaryAuthArea": "Isle of Anglesey"
  },
  {
    "alt": "10.0",
    "id": "350241",
    "lat": "53.2103",
    "lng": "-0.3171",
    "name": "Bardney",
    "region": "em",
    "unitaryAuthArea": "Lincolnshire"
  },
  {
    "alt": "99.0",
    "id": "353496",
    "lat": "53.2016",
    "lng": "-1.2164",
    "name": "Shirebrook",
    "region": "em",
    "unitaryAuthArea": "Derbyshire"
  },
  {
    "alt": "0.0",
    "id": "354735",
    "lat": "53.1912",
    "lng": "0.355",
    "name": "Ingoldmells South (Beach)",
    "region": "em",
    "unitaryAuthArea": "Lincolnshire"
  },
  {
    "alt": "20.0",
    "id": "350892",
    "lat": "53.1798",
    "lng": "-2.903",
    "name": "Chester Youth Hostel",
    "region": "nw",
    "unitaryAuthArea": "Cheshire West and Chester"
  },
  {
    "alt": "976.0",
    "id": "371463",
    "lat": "53.1738",
    "lng": "-3.962",
    "name": "Foel Grach",
    "nationalPark": "Snowdonia National Park",
    "region": "wl",
    "unitaryAuthArea": "Conwy"
  },
  {
    "alt": "96.0",
    "id": "350996",
    "lat": "53.1626",
    "lng": "-2.2175",
    "name": "Congleton",
    "region": "nw",
    "unitaryAuthArea": "Cheshire East"
  },
  {
    "alt": "1044.0",
    "id": "371387",
    "lat": "53.1475",
    "lng": "-3.9996",
    "name": "Carnedd Dafydd",
    "nationalPark": "Snowdonia National Park",
    "region": "wl",
    "unitaryAuthArea": "Conwy"
  },
  {
    "alt": "344.0",
    "id": "352491",
    "lat": "53.1409",
    "lng": "-3.1797",
    "name": "Maeshafn Youth Hostel",
    "region": "wl",
    "unitaryAuthArea": "Flintshire"
  },
  {
    "alt": "924.0",
    "id": "371446",
    "lat": "53.1305",
    "lng": "-4.0748",
    "name": "Elidyr Fawr",
    "nationalPark": "Snowdonia National Park",
    "region": "wl",
    "unitaryAuthArea": "Gwynedd"
  },
  {
    "alt": "142.0",
    "id": "351703",
    "lat": "53.1216",
    "lng": "-1.5642",
    "name": "Gulliver's Theme Park",
    "region": "em",
    "unitaryAuthArea": "Derbyshire"
  },
  {
    "alt": "210.0",
    "id": "352323",
    "lat": "53.1127",
    "lng": "-4.1318",
    "name": "Llanberis Youth Hostel",
    "region": "wl",
    "unitaryAuthArea": "Gwynedd"
  },
  {
    "alt": "1001.0",
    "id": "371474",
    "lat": "53.1012",
    "lng": "-4.0279",
    "name": "Glyder Fawr",
    "nationalPark": "Snowdonia National Park",
    "region": "wl",
    "unitaryAuthArea": "Gwynedd"
  },
  {
    "alt": "136.0",
    "id": "352087",
    "lat": "53.0859",
    "lng": "-2.2394",
    "name": "Kidsgrove",
    "region": "wm",
    "unitaryAuthArea": "Staffordshire"
  },
  {
    "alt": "15.0",
    "id": "352781",
    "lat": "53.0747",
    "lng": "-0.8034",
    "name": "Newark-On-Trent",
    "region": "em",
    "unitaryAuthArea": "Nottinghamshire"
  },
  {
    "alt": "1040.0",
    "id": "3308",
    "lat": "53.068",
    "lng": "-4.077",
    "name": "Snowdon Summit",
    "nationalPark": "Snowdonia National Park",
    "region": "wl",
    "unitaryAuthArea": "Gwynedd"
  },
  {
    "alt": "90.0",
    "id": "350912",
    "lat": "53.0557",
    "lng": "-2.6904",
    "name": "Cholmondeley Castle Gardens",
    "region": "nw",
    "unitaryAuthArea": "Cheshire East"
  },
  {
    "alt": "179.0",
    "id": "352428",
    "lat": "53.0454",
    "lng": "-2.2252",
    "name": "Longbridge Hayes",
    "region": "wm",
    "unitaryAuthArea": "Staffordshire"
  },
  {
    "alt": "128.0",
    "id": "350003",
    "lat": "53.0333",
    "lng": "-2.14",
    "name": "Abbey Hulton",
    "region": "wm",
    "unitaryAuthArea": "Stoke-on-Trent"
  },
  {
    "alt": "164.0",
    "id": "352568",
    "lat": "53.0246",
    "lng": "-2.2147",
    "name": "May Bank",
    "region": "wm",
    "unitaryAuthArea": "Staffordshire"
  },
  {
    "alt": "93.0",
    "id": "351330",
    "lat": "53.0178",
    "lng": "-1.307",
    "name": "Eastwood (Nottinghamshire)",
    "region": "em",
    "unitaryAuthArea": "Nottinghamshire"
  },
  {
    "alt": "85.0",
    "id": "353183",
    "lat": "53.0102",
    "lng": "-1.1368",
    "name": "Redhill (Nottinghamshire)",
    "region": "em",
    "unitaryAuthArea": "Nottinghamshire"
  },
  {
    "alt": "175.0",
    "id": "350035",
    "lat": "53.0007",
    "lng": "-2.118",
    "name": "Adderley Green",
    "region": "wm",
    "unitaryAuthArea": "Stoke-on-Trent"
  },
  {
    "alt": "118.0",
    "id": "352108",
    "lat": "52.9938",
    "lng": "-1.252",
    "name": "Kimberley",
    "region": "em",
    "unitaryAuthArea": "Nottinghamshire"
  },
  {
    "alt": "130.0",
    "id": "353704",
    "lat": "52.9864",
    "lng": "-2.167",
    "name": "Stoke City F.C.",
    "region": "wm",
    "unitaryAuthArea": "Stoke-on-Trent"
  },
  {
    "alt": "96.0",
    "id": "353071",
    "lat": "52.9794",
    "lng": "-1.1208",
    "name": "Porchester",
    "region": "em",
    "unitaryAuthArea": "Nottinghamshire"
  },
  {
    "alt": "204.0",
    "id": "355885",
    "lat": "52.97476",
    "lng": "-4.14939",
    "name": "Cwmystradllyn",
    "nationalPark": "Snowdonia National Park",
    "region": "wl",
    "unitaryAuthArea": "Gwynedd"
  },
  {
    "alt": "85.0",
    "id": "353884",
    "lat": "52.9664",
    "lng": "-1.1148",
    "name": "Thorneywood",
    "region": "em",
    "unitaryAuthArea": "Nottinghamshire"
  },
  {
    "alt": "11.0",
    "id": "354115",
    "lat": "52.9543",
    "lng": "0.8507",
    "name": "Wells-Next-The-Sea",
    "region": "ee",
    "unitaryAuthArea": "Norfolk"
  },
  {
    "alt": "45.0",
    "id": "351765",
    "lat": "52.9487",
    "lng": "-1.0102",
    "name": "Harlequin",
    "region": "em",
    "unitaryAuthArea": "Nottinghamshire"
  },
  {
    "alt": "32.0",
    "id": "351975",
    "lat": "52.9419",
    "lng": "0.4955",
    "name": "Hunstanton Youth Hostel",
    "region": "ee",
    "unitaryAuthArea": "Norfolk"
  },
  {
    "alt": "40.0",
    "id": "352748",
    "lat": "52.9354",
    "lng": "-4.5189",
    "name": "Nefyn",
    "region": "wl",
    "unitaryAuthArea": "Gwynedd"
  },
  {
    "alt": "9.0",
    "id": "310221",
    "lat": "52.9276",
    "lng": "-4.1321",
    "name": "Porthmadog",
    "region": "wl",
    "unitaryAuthArea": "Gwynedd"
  },
  {
    "alt": "854.0",
    "id": "371336",
    "lat": "52.9168",
    "lng": "-3.7447",
    "name": "Arenig Fawr",
    "nationalPark": "Snowdonia National Park",
    "region": "wl",
    "unitaryAuthArea": "Gwynedd"
  },
  {
    "alt": "70.0",
    "id": "351450",
    "lat": "52.9095",
    "lng": "1.265",
    "name": "Felbrigg Hall",
    "region": "ee",
    "unitaryAuthArea": "Norfolk"
  },
  {
    "alt": "785.0",
    "id": "371375",
    "lat": "52.9011",
    "lng": "-3.3716",
    "name": "Cadair Bronwen",
    "region": "wl",
    "unitaryAuthArea": "Wrexham"
  },
  {
    "alt": "0.0",
    "id": "352724",
    "lat": "52.8799",
    "lng": "1.4407",
    "name": "Mundesley",
    "region": "ee",
    "unitaryAuthArea": "Norfolk"
  },
  {
    "alt": "71.0",
    "id": "351764",
    "lat": "52.8586",
    "lng": "-4.1066",
    "name": "Harlech",
    "nationalPark": "Snowdonia National Park",
    "region": "wl",
    "unitaryAuthArea": "Gwynedd"
  },
  {
    "alt": "31.0",
    "id": "352517",
    "lat": "52.8438",
    "lng": "1.1814",
    "name": "Mannington Hall",
    "region": "ee",
    "unitaryAuthArea": "Norfolk"
  },
  {
    "alt": "9.0",
    "id": "324078",
    "lat": "52.8242",
    "lng": "-4.5042",
    "name": "Abersoch",
    "region": "wl",
    "unitaryAuthArea": "Gwynedd"
  },
  {
    "alt": "110.0",
    "id": "350005",
    "lat": "52.8177",
    "lng": "-1.8807",
    "name": "Abbots Bromley",
    "region": "wm",
    "unitaryAuthArea": "Staffordshire"
  },
  {
    "alt": "9.0",
    "id": "3407",
    "lat": "52.802",
    "lng": "-4.124",
    "name": "Llanbedr",
    "nationalPark": "Snowdonia National Park",
    "region": "wl",
    "unitaryAuthArea": "Gwynedd"
  },
  {
    "alt": "95.0",
    "id": "3405",
    "lat": "52.789",
    "lng": "-4.742",
    "name": "Aberdaron",
    "region": "wl",
    "unitaryAuthArea": "Gwynedd"
  },
  {
    "alt": "10.0",
    "id": "354869",
    "lat": "52.7729",
    "lng": "1.5173",
    "name": "Stalham",
    "nationalPark": "The Broads",
    "region": "ee",
    "unitaryAuthArea": "Norfolk"
  },
  {
    "alt": "74.0",
    "id": "324062",
    "lat": "52.7661",
    "lng": "-0.8856",
    "name": "Melton Mowbray",
    "region": "em",
    "unitaryAuthArea": "Leicestershire"
  },
  {
    "alt": "360.0",
    "id": "3410",
    "lat": "52.757",
    "lng": "-3.464",
    "name": "Lake Vyrnwy Saws",
    "region": "wl",
    "unitaryAuthArea": "Powys"
  },
  {
    "alt": "11.0",
    "id": "353903",
    "lat": "52.7354",
    "lng": "-0.3704",
    "name": "Thurlby Youth Hostel",
    "region": "em",
    "unitaryAuthArea": "Lincolnshire"
  },
  {
    "alt": "162.0",
    "id": "350967",
    "lat": "52.7242",
    "lng": "-1.3662",
    "name": "Coalville",
    "region": "em",
    "unitaryAuthArea": "Leicestershire"
  },
  {
    "alt": "66.0",
    "id": "310133",
    "lat": "52.7066",
    "lng": "-2.7513",
    "name": "Shrewsbury",
    "region": "wm",
    "unitaryAuthArea": "Shropshire"
  },
  {
    "alt": "3.0",
    "id": "351912",
    "lat": "52.6918",
    "lng": "-0.0384",
    "name": "Holbeach Drove",
    "region": "em",
    "unitaryAuthArea": "Lincolnshire"
  },
  {
    "alt": "130.0",
    "id": "354151",
    "lat": "52.6785",
    "lng": "-2.9499",
    "name": "Westbury (Shropshire)",
    "region": "wm",
    "unitaryAuthArea": "Shropshire"
  },
  {
    "alt": "103.0",
    "id": "324210",
    "lat": "52.6692",
    "lng": "-0.7251",
    "name": "Oakham",
    "region": "em",
    "unitaryAuthArea": "Rutland"
  },
  {
    "alt": "120.0",
    "id": "352429",
    "lat": "52.6521",
    "lng": "-2.8211",
    "name": "Longden",
    "region": "wm",
    "unitaryAuthArea": "Shropshire"
  },
  {
    "alt": "90.0",
    "id": "351602",
    "lat": "52.6457",
    "lng": "-1.198",
    "name": "Glenfield",
    "region": "em",
    "unitaryAuthArea": "Leicestershire"
  },
  {
    "alt": "83.0",
    "id": "351160",
    "lat": "52.6373",
    "lng": "-1.1676",
    "name": "Dane Hills",
    "region": "em",
    "unitaryAuthArea": "Leicester"
  },
  {
    "alt": "147.0",
    "id": "352974",
    "lat": "52.631",
    "lng": "-1.9701",
    "name": "Pelsall",
    "region": "wm",
    "unitaryAuthArea": "West Midlands Conurbation"
  },
  {
    "alt": "112.0",
    "id": "352358",
    "lat": "52.6247",
    "lng": "-3.1744",
    "name": "Llwynderw",
    "region": "wl",
    "unitaryAuthArea": "Powys"
  },
  {
    "alt": "55.0",
    "id": "352249",
    "lat": "52.6201",
    "lng": "-1.1407",
    "name": "Leicester City F.C.",
    "region": "em",
    "unitaryAuthArea": "Leicester"
  },
  {
    "alt": "2.0",
    "id": "351674",
    "lat": "52.6138",
    "lng": "1.734",
    "name": "Great Yarmouth Youth Hostel",
    "region": "ee",
    "unitaryAuthArea": "Norfolk"
  },
  {
    "alt": "68.0",
    "id": "351640",
    "lat": "52.6075",
    "lng": "-1.1412",
    "name": "Grace Road Leicestershire C.C.C.",
    "region": "em",
    "unitaryAuthArea": "Leicester"
  },
  {
    "alt": "87.0",
    "id": "352251",
    "lat": "52.6008",
    "lng": "-1.0939",
    "name": "Leicester Racecourse",
    "region": "em",
    "unitaryAuthArea": "Leicestershire"
  },
  {
    "alt": "128.0",
    "id": "354282",
    "lat": "52.5938",
    "lng": "-2.1326",
    "name": "Wolverhampton Wanderers F.C.",
    "region": "wm",
    "unitaryAuthArea": "West Midlands Conurbation"
  },
  {
    "alt": "150.0",
    "id": "352611",
    "lat": "52.5867",
    "lng": "-1.8192",
    "name": "Mere Green",
    "region": "wm",
    "unitaryAuthArea": "West Midlands Conurbation"
  },
  {
    "alt": "137.0",
    "id": "352689",
    "lat": "52.5836",
    "lng": "-2.0962",
    "name": "Moseley (Nr Wolverhampton)",
    "region": "wm",
    "unitaryAuthArea": "West Midlands Conurbation"
  },
  {
    "alt": "162.0",
    "id": "353743",
    "lat": "52.5755",
    "lng": "-1.882",
    "name": "Streetly",
    "region": "wm",
    "unitaryAuthArea": "West Midlands Conurbation"
  },
  {
    "alt": "120.0",
    "id": "350402",
    "lat": "52.5712",
    "lng": "-1.9971",
    "name": "Bescot",
    "region": "wm",
    "unitaryAuthArea": "West Midlands Conurbation"
  },
  {
    "alt": "113.0",
    "id": "354067",
    "lat": "52.5659",
    "lng": "-1.9814",
    "name": "Walsall F.C.",
    "region": "wm",
    "unitaryAuthArea": "West Midlands Conurbation"
  },
  {
    "alt": "143.0",
    "id": "353624",
    "lat": "52.5604",
    "lng": "-2.1714",
    "name": "Spring Hill",
    "region": "wm",
    "unitaryAuthArea": "West Midlands Conurbation"
  },
  {
    "alt": "5.0",
    "id": "352530",
    "lat": "52.5514",
    "lng": "0.0903",
    "name": "March",
    "region": "ee",
    "unitaryAuthArea": "Cambridgeshire"
  },
  {
    "alt": "135.0",
    "id": "352122",
    "lat": "52.5447",
    "lng": "-1.8822",
    "name": "Kingstanding",
    "region": "wm",
    "unitaryAuthArea": "West Midlands Conurbation"
  },
  {
    "alt": "112.0",
    "id": "354066",
    "lat": "52.5387",
    "lng": "-1.8026",
    "name": "Walmley",
    "region": "wm",
    "unitaryAuthArea": "West Midlands Conurbation"
  },
  {
    "alt": "117.0",
    "id": "352217",
    "lat": "52.5336",
    "lng": "-0.9453",
    "name": "Langton Hall",
    "region": "em",
    "unitaryAuthArea": "Leicestershire"
  },
  {
    "alt": "87.0",
    "id": "352138",
    "lat": "52.5252",
    "lng": "-0.6352",
    "name": "Kirby Hall",
    "region": "em",
    "unitaryAuthArea": "Northamptonshire"
  },
  {
    "alt": "141.0",
    "id": "351263",
    "lat": "52.5187",
    "lng": "-2.0512",
    "name": "Dudley Port",
    "region": "wm",
    "unitaryAuthArea": "West Midlands Conurbation"
  },
  {
    "alt": "200.0",
    "id": "351262",
    "lat": "52.5119",
    "lng": "-2.0797",
    "name": "Dudley",
    "region": "wm",
    "unitaryAuthArea": "West Midlands Conurbation"
  },
  {
    "alt": "9.0",
    "id": "353037",
    "lat": "52.5045",
    "lng": "1.7418",
    "name": "Pleasurewood Hills Theme Park Lowestoft",
    "region": "ee",
    "unitaryAuthArea": "Suffolk"
  },
  {
    "alt": "2.0",
    "id": "350521",
    "lat": "52.4963",
    "lng": "-4.0496",
    "name": "Borth Youth Hostel",
    "region": "wl",
    "unitaryAuthArea": "Ceredigion"
  },
  {
    "alt": "150.0",
    "id": "353547",
    "lat": "52.4921",
    "lng": "-1.9638",
    "name": "Smethwick",
    "region": "wm",
    "unitaryAuthArea": "West Midlands Conurbation"
  },
  {
    "alt": "44.0",
    "id": "352423",
    "lat": "52.4871",
    "lng": "1.239",
    "name": "Long Stratton",
    "region": "ee",
    "unitaryAuthArea": "Norfolk"
  },
  {
    "alt": "90.0",
    "id": "351495",
    "lat": "52.4835",
    "lng": "-1.7485",
    "name": "Fordbridge",
    "region": "wm",
    "unitaryAuthArea": "West Midlands Conurbation"
  },
  {
    "alt": "106.0",
    "id": "351264",
    "lat": "52.4782",
    "lng": "-2.0825",
    "name": "Dudley Wood",
    "region": "wm",
    "unitaryAuthArea": "West Midlands Conurbation"
  },
  {
    "alt": "188.0",
    "id": "350297",
    "lat": "52.4721",
    "lng": "-1.9706",
    "name": "Beech Lane",
    "region": "wm",
    "unitaryAuthArea": "West Midlands Conurbation"
  },
  {
    "alt": "144.0",
    "id": "350848",
    "lat": "52.4668",
    "lng": "-1.9338",
    "name": "Chad Valley",
    "region": "wm",
    "unitaryAuthArea": "West Midlands Conurbation"
  },
  {
    "alt": "100.0",
    "id": "351417",
    "lat": "52.4613",
    "lng": "-1.4815",
    "name": "Exhall",
    "region": "wm",
    "unitaryAuthArea": "Warwickshire"
  },
  {
    "alt": "121.0",
    "id": "353593",
    "lat": "52.4581",
    "lng": "-1.8094",
    "name": "South Yardley",
    "region": "wm",
    "unitaryAuthArea": "West Midlands Conurbation"
  },
  {
    "alt": "5.0",
    "id": "350670",
    "lat": "52.4551",
    "lng": "1.4457",
    "name": "Bungay",
    "region": "ee",
    "unitaryAuthArea": "Suffolk"
  },
  {
    "alt": "81.0",
    "id": "351564",
    "lat": "52.4487",
    "lng": "-2.16",
    "name": "Gigmill",
    "region": "wm",
    "unitaryAuthArea": "West Midlands Conurbation"
  },
  {
    "alt": "106.0",
    "id": "351913",
    "lat": "52.4457",
    "lng": "-1.5197",
    "name": "Holbrooks",
    "region": "wm",
    "unitaryAuthArea": "West Midlands Conurbation"
  },
  {
    "alt": "186.0",
    "id": "354289",
    "lat": "52.4396",
    "lng": "-2.0031",
    "name": "Woodgate",
    "region": "wm",
    "unitaryAuthArea": "West Midlands Conurbation"
  },
  {
    "alt": "22.0",
    "id": "350285",
    "lat": "52.4326",
    "lng": "1.6159",
    "name": "Beccles Heliport",
    "region": "ee",
    "unitaryAuthArea": "Suffolk"
  },
  {
    "alt": "140.0",
    "id": "351732",
    "lat": "52.4271",
    "lng": "-1.8414",
    "name": "Hall Green",
    "region": "wm",
    "unitaryAuthArea": "West Midlands Conurbation"
  },
  {
    "alt": "-2.0",
    "id": "371559",
    "lat": "52.42142",
    "lng": "0.10167",
    "name": "Mepal",
    "region": "ee",
    "unitaryAuthArea": "Cambridgeshire"
  },
  {
    "alt": "317.0",
    "id": "350701",
    "lat": "52.4151",
    "lng": "-3.8857",
    "name": "Bwlch Nant Yr Arian",
    "region": "wl",
    "unitaryAuthArea": "Ceredigion"
  },
  {
    "alt": "149.0",
    "id": "352863",
    "lat": "52.4079",
    "lng": "-1.9612",
    "name": "Northfield (West Midlands)",
    "region": "wm",
    "unitaryAuthArea": "West Midlands Conurbation"
  },
  {
    "alt": "29.0",
    "id": "351766",
    "lat": "52.4025",
    "lng": "1.3",
    "name": "Harleston",
    "region": "ee",
    "unitaryAuthArea": "Norfolk"
  },
  {
    "alt": "142.0",
    "id": "353502",
    "lat": "52.3958",
    "lng": "-1.8231",
    "name": "Shirley Heath",
    "region": "wm",
    "unitaryAuthArea": "West Midlands Conurbation"
  },
  {
    "alt": "92.0",
    "id": "350743",
    "lat": "52.3872",
    "lng": "-1.5454",
    "name": "Canley",
    "region": "wm",
    "unitaryAuthArea": "West Midlands Conurbation"
  },
  {
    "alt": "28.0",
    "id": "324252",
    "lat": "52.3761",
    "lng": "1.1101",
    "name": "Diss",
    "region": "ee",
    "unitaryAuthArea": "Norfolk"
  },
  {
    "alt": "70.0",
    "id": "350689",
    "lat": "52.3655",
    "lng": "-0.6766",
    "name": "Burton Latimer",
    "region": "em",
    "unitaryAuthArea": "Northamptonshire"
  },
  {
    "alt": "153.0",
    "id": "351023",
    "lat": "52.3454",
    "lng": "-1.0442",
    "name": "Coton Manor Wildlife Garden",
    "region": "em",
    "unitaryAuthArea": "Northamptonshire"
  },
  {
    "alt": "13.0",
    "id": "351976",
    "lat": "52.3348",
    "lng": "-0.2279",
    "name": "Huntingdon Racecourse",
    "region": "ee",
    "unitaryAuthArea": "Cambridgeshire"
  },
  {
    "alt": "0.0",
    "id": "354722",
    "lat": "52.3181",
    "lng": "1.6774",
    "name": "Southwold - The Denes (Beach)",
    "region": "ee",
    "unitaryAuthArea": "Suffolk"
  },
  {
    "alt": "117.0",
    "id": "351915",
    "lat": "52.3017",
    "lng": "-0.9833",
    "name": "Holdenby House",
    "region": "em",
    "unitaryAuthArea": "Northamptonshire"
  },
  {
    "alt": "63.0",
    "id": "324232",
    "lat": "52.282",
    "lng": "-1.5835",
    "name": "Warwick",
    "region": "wm",
    "unitaryAuthArea": "Warwickshire"
  },
  {
    "alt": "34.0",
    "id": "351249",
    "lat": "52.2683",
    "lng": "-2.1493",
    "name": "Droitwich Spa",
    "region": "wm",
    "unitaryAuthArea": "Worcestershire"
  },
  {
    "alt": "26.0",
    "id": "99123",
    "lat": "52.245",
    "lng": "0.103",
    "name": "Cambridgeniab",
    "region": "ee",
    "unitaryAuthArea": "Cambridgeshire"
  },
  {
    "alt": "88.0",
    "id": "352553",
    "lat": "52.238",
    "lng": "-2.3641",
    "name": "Martley",
    "region": "wm",
    "unitaryAuthArea": "Worcestershire"
  },
  {
    "alt": "141.0",
    "id": "350199",
    "lat": "52.2218",
    "lng": "-1.1791",
    "name": "Badby Youth Hostel",
    "region": "em",
    "unitaryAuthArea": "Northamptonshire"
  },
  {
    "alt": "110.0",
    "id": "350457",
    "lat": "52.2149",
    "lng": "-1.4335",
    "name": "Bishop's Itchington",
    "region": "wm",
    "unitaryAuthArea": "Warwickshire"
  },
  {
    "alt": "11.0",
    "id": "350730",
    "lat": "52.2054",
    "lng": "0.1765",
    "name": "Cambridge City Airport",
    "region": "ee",
    "unitaryAuthArea": "Cambridgeshire"
  },
  {
    "alt": "84.0",
    "id": "352571",
    "lat": "52.1958",
    "lng": "0.8026",
    "name": "Maypole Green",
    "region": "ee",
    "unitaryAuthArea": "Suffolk"
  },
  {
    "alt": "47.0",
    "id": "354034",
    "lat": "52.187",
    "lng": "-2.0874",
    "name": "Upton Snodsbury",
    "region": "wm",
    "unitaryAuthArea": "Worcestershire"
  },
  {
    "alt": "107.0",
    "id": "353140",
    "lat": "52.1704",
    "lng": "-0.8542",
    "name": "Quinton Green",
    "region": "em",
    "unitaryAuthArea": "Northamptonshire"
  },
  {
    "alt": "25.0",
    "id": "352746",
    "lat": "52.1552",
    "lng": "1.0513",
    "name": "Needham Market",
    "region": "ee",
    "unitaryAuthArea": "Suffolk"
  },
  {
    "alt": "93.0",
    "id": "350745",
    "lat": "52.1384",
    "lng": "-2.7896",
    "name": "Canon Pyon",
    "region": "wm",
    "unitaryAuthArea": "Herefordshire"
  },
  {
    "alt": "88.0",
    "id": "353965",
    "lat": "52.1294",
    "lng": "-0.9707",
    "name": "Towcester Racecourse",
    "region": "em",
    "unitaryAuthArea": "Northamptonshire"
  },
  {
    "alt": "120.0",
    "id": "352199",
    "lat": "52.1107",
    "lng": "-4.0764",
    "name": "Lampeter",
    "region": "wl",
    "unitaryAuthArea": "Ceredigion"
  },
  {
    "alt": "80.0",
    "id": "352077",
    "lat": "52.0995",
    "lng": "0.7234",
    "name": "Kentwell Hall",
    "region": "ee",
    "unitaryAuthArea": "Suffolk"
  },
  {
    "alt": "172.0",
    "id": "350642",
    "lat": "52.0864",
    "lng": "-1.4558",
    "name": "Brook Cottage Gardens (Alkerton)",
    "region": "se",
    "unitaryAuthArea": "Oxfordshire"
  },
  {
    "alt": "58.0",
    "id": "353897",
    "lat": "52.0822",
    "lng": "-2.3121",
    "name": "Three Counties Showground",
    "region": "wm",
    "unitaryAuthArea": "Worcestershire"
  },
  {
    "alt": "149.0",
    "id": "354328",
    "lat": "52.0694",
    "lng": "-1.3938",
    "name": "Wroxton Abbey",
    "region": "se",
    "unitaryAuthArea": "Oxfordshire"
  },
  {
    "alt": "64.0",
    "id": "353495",
    "lat": "52.0603",
    "lng": "-1.6214",
    "name": "Shipston On Stour",
    "region": "wm",
    "unitaryAuthArea": "Warwickshire"
  },
  {
    "alt": "70.0",
    "id": "350558",
    "lat": "52.0482",
    "lng": "-0.7886",
    "name": "Bradwell Village Youth Hostel",
    "region": "se",
    "unitaryAuthArea": "Milton Keynes"
  },
  {
    "alt": "189.0",
    "id": "353511",
    "lat": "52.0381",
    "lng": "-1.4861",
    "name": "Sibford Gower",
    "region": "se",
    "unitaryAuthArea": "Oxfordshire"
  },
  {
    "alt": "97.0",
    "id": "350246",
    "lat": "52.0272",
    "lng": "0.0368",
    "name": "Barley",
    "region": "ee",
    "unitaryAuthArea": "Hertfordshire"
  },
  {
    "alt": "51.0",
    "id": "351675",
    "lat": "52.0154",
    "lng": "0.565",
    "name": "Great Yeldham",
    "region": "ee",
    "unitaryAuthArea": "Essex"
  },
  {
    "alt": "143.0",
    "id": "353129",
    "lat": "52.0067",
    "lng": "-5.069",
    "name": "Pwll Deri Youth Hostel",
    "nationalPark": "Pembrokeshire Coast National Park",
    "region": "wl",
    "unitaryAuthArea": "Pembrokeshire"
  },
  {
    "alt": "81.0",
    "id": "324169",
    "lat": "51.9989",
    "lng": "-0.9861",
    "name": "Buckingham",
    "region": "se",
    "unitaryAuthArea": "Buckinghamshire"
  },
  {
    "alt": "128.0",
    "id": "352682",
    "lat": "51.9907",
    "lng": "-1.7045",
    "name": "Moreton-In-Marsh",
    "region": "sw",
    "unitaryAuthArea": "Gloucestershire"
  },
  {
    "alt": "170.0",
    "id": "353403",
    "lat": "51.9786",
    "lng": "-1.7491",
    "name": "Sezincote House",
    "region": "sw",
    "unitaryAuthArea": "Gloucestershire"
  },
  {
    "alt": "27.0",
    "id": "351863",
    "lat": "51.9623",
    "lng": "-2.3251",
    "name": "Hethelpit Cross",
    "region": "sw",
    "unitaryAuthArea": "Gloucestershire"
  },
  {
    "alt": "102.0",
    "id": "351666",
    "lat": "51.9512",
    "lng": "0.0401",
    "name": "Great Hormead",
    "region": "ee",
    "unitaryAuthArea": "Hertfordshire"
  },
  {
    "alt": "219.0",
    "id": "354920",
    "lat": "51.9447",
    "lng": "-3.0364",
    "name": "Llanthony Priory",
    "nationalPark": "Brecon Beacons National Park",
    "region": "wl",
    "unitaryAuthArea": "Monmouthshire"
  },
  {
    "alt": "21.0",
    "id": "322276",
    "lat": "51.9343",
    "lng": "1.262",
    "name": "Harwich",
    "region": "ee",
    "unitaryAuthArea": "Essex"
  },
  {
    "alt": "135.0",
    "id": "350921",
    "lat": "51.9243",
    "lng": "-1.4506",
    "name": "Church Enstone",
    "region": "se",
    "unitaryAuthArea": "Oxfordshire"
  },
  {
    "alt": "720.0",
    "id": "371591",
    "lat": "51.9112",
    "lng": "-3.153",
    "name": "Pen Allt-Mawr",
    "nationalPark": "Brecon Beacons National Park",
    "region": "wl",
    "unitaryAuthArea": "Powys"
  },
  {
    "alt": "118.0",
    "id": "350452",
    "lat": "51.8995",
    "lng": "-0.4319",
    "name": "Biscot",
    "region": "ee",
    "unitaryAuthArea": "Luton"
  },
  {
    "alt": "195.0",
    "id": "352771",
    "lat": "51.8952",
    "lng": "-4.809",
    "name": "New Moat",
    "region": "wl",
    "unitaryAuthArea": "Pembrokeshire"
  },
  {
    "alt": "130.0",
    "id": "351772",
    "lat": "51.8872",
    "lng": "-0.4057",
    "name": "Hart Hill",
    "region": "ee",
    "unitaryAuthArea": "Luton"
  },
  {
    "alt": "621.0",
    "id": "352361",
    "lat": "51.8826",
    "lng": "-3.7019",
    "name": "Llyn Y Fan Fawr",
    "nationalPark": "Brecon Beacons National Park",
    "region": "wl",
    "unitaryAuthArea": "Powys"
  },
  {
    "alt": "130.0",
    "id": "354188",
    "lat": "51.8783",
    "lng": "-0.8341",
    "name": "Whitchurch (Buckinghamshire)",
    "region": "se",
    "unitaryAuthArea": "Buckinghamshire"
  },
  {
    "alt": "0.0",
    "id": "354504",
    "lat": "51.8724",
    "lng": "-5.2539",
    "name": "Caerfai Bay (Beach)",
    "region": "wl",
    "unitaryAuthArea": "Pembrokeshire"
  },
  {
    "alt": "210.0",
    "id": "3647",
    "lat": "51.86",
    "lng": "-1.692",
    "name": "Little Rissington (Esaws)",
    "region": "sw",
    "unitaryAuthArea": "Gloucestershire"
  },
  {
    "alt": "663.0",
    "id": "371455",
    "lat": "51.8532",
    "lng": "-3.578",
    "name": "Fan Nedd",
    "nationalPark": "Brecon Beacons National Park",
    "region": "wl",
    "unitaryAuthArea": "Powys"
  },
  {
    "alt": "70.0",
    "id": "351668",
    "lat": "51.8426",
    "lng": "0.5153",
    "name": "Great Leighs Racecourse",
    "region": "ee",
    "unitaryAuthArea": "Essex"
  },
  {
    "alt": "21.0",
    "id": "351520",
    "lat": "51.83",
    "lng": "1.249",
    "name": "Frinton-On-Sea",
    "region": "ee",
    "unitaryAuthArea": "Essex"
  },
  {
    "alt": "9.0",
    "id": "354153",
    "lat": "51.8184",
    "lng": "-2.4081",
    "name": "Westbury Court Garden",
    "region": "sw",
    "unitaryAuthArea": "Gloucestershire"
  },
  {
    "alt": "144.0",
    "id": "352314",
    "lat": "51.8122",
    "lng": "-2.4796",
    "name": "Littledean Hall",
    "region": "sw",
    "unitaryAuthArea": "Gloucestershire"
  },
  {
    "alt": "0.0",
    "id": "354712",
    "lat": "51.8058",
    "lng": "1.0127",
    "name": "Brightlingsea (Beach)",
    "region": "ee",
    "unitaryAuthArea": "Essex"
  },
  {
    "alt": "17.0",
    "id": "354266",
    "lat": "51.7974",
    "lng": "0.6389",
    "name": "Witham",
    "region": "ee",
    "unitaryAuthArea": "Essex"
  },
  {
    "alt": "43.0",
    "id": "353055",
    "lat": "51.7924",
    "lng": "-4.2602",
    "name": "Pontantwn",
    "region": "wl",
    "unitaryAuthArea": "Carmarthenshire"
  },
  {
    "alt": "70.0",
    "id": "351421",
    "lat": "51.7812",
    "lng": "-1.3755",
    "name": "Eynsham",
    "region": "se",
    "unitaryAuthArea": "Oxfordshire"
  },
  {
    "alt": "349.0",
    "id": "350480",
    "lat": "51.7768",
    "lng": "-3.0934",
    "name": "Blaenavon",
    "region": "wl",
    "unitaryAuthArea": "Torfaen"
  },
  {
    "alt": "76.0",
    "id": "352933",
    "lat": "51.7629",
    "lng": "-1.2295",
    "name": "Oxford Youth Hostel",
    "region": "se",
    "unitaryAuthArea": "Oxfordshire"
  },
  {
    "alt": "39.0",
    "id": "350544",
    "lat": "51.757",
    "lng": "0.3874",
    "name": "Boyton Cross",
    "region": "ee",
    "unitaryAuthArea": "Essex"
  },
  {
    "alt": "175.0",
    "id": "324081",
    "lat": "51.7483",
    "lng": "-3.3804",
    "name": "Merthyr Tydfil",
    "region": "wl",
    "unitaryAuthArea": "Merthyr Tydfil"
  },
  {
    "alt": "47.0",
    "id": "350974",
    "lat": "51.7378",
    "lng": "-4.669",
    "name": "Colby Woodland Garden",
    "nationalPark": "Pembrokeshire Coast National Park",
    "region": "wl",
    "unitaryAuthArea": "Pembrokeshire"
  },
  {
    "alt": "34.0",
    "id": "322494",
    "lat": "51.7314",
    "lng": "0.6731",
    "name": "Maldon",
    "region": "ee",
    "unitaryAuthArea": "Essex"
  },
  {
    "alt": "106.0",
    "id": "353121",
    "lat": "51.724",
    "lng": "-0.833",
    "name": "Princes Risborough",
    "region": "se",
    "unitaryAuthArea": "Buckinghamshire"
  },
  {
    "alt": "3.0",
    "id": "3605",
    "lat": "51.713",
    "lng": "-4.368",
    "name": "Pembrey Sands",
    "region": "wl",
    "unitaryAuthArea": "Carmarthenshire"
  },
  {
    "alt": "0.0",
    "id": "351148",
    "lat": "51.7072",
    "lng": "-5.164",
    "name": "Dale",
    "region": "wl",
    "unitaryAuthArea": "Pembrokeshire"
  },
  {
    "alt": "113.0",
    "id": "353064",
    "lat": "51.6987",
    "lng": "-3.0272",
    "name": "Pontypool Ski Centre",
    "region": "wl",
    "unitaryAuthArea": "Torfaen"
  },
  {
    "alt": "0.0",
    "id": "354482",
    "lat": "51.6913",
    "lng": "-4.6811",
    "name": "Monkstone Beach",
    "region": "wl",
    "unitaryAuthArea": "Pembrokeshire"
  },
  {
    "alt": "109.0",
    "id": "352704",
    "lat": "51.6812",
    "lng": "-3.3719",
    "name": "Mountain Ash",
    "region": "wl",
    "unitaryAuthArea": "Rhondda Cynon Taff"
  },
  {
    "alt": "150.0",
    "id": "324161",
    "lat": "51.6751",
    "lng": "-0.6057",
    "name": "Amersham",
    "region": "se",
    "unitaryAuthArea": "Buckinghamshire"
  },
  {
    "alt": "52.0",
    "id": "321943",
    "lat": "51.6704",
    "lng": "-1.2865",
    "name": "Abingdon",
    "region": "se",
    "unitaryAuthArea": "Oxfordshire"
  },
  {
    "alt": "109.0",
    "id": "352783",
    "lat": "51.6648",
    "lng": "-3.1428",
    "name": "Newbridge",
    "region": "wl",
    "unitaryAuthArea": "Caerphilly"
  },
  {
    "alt": "63.0",
    "id": "354101",
    "lat": "51.6561",
    "lng": "-0.3888",
    "name": "Watford (Hertfordshire)",
    "region": "ee",
    "unitaryAuthArea": "Hertfordshire"
  },
  {
    "alt": "80.0",
    "id": "350694",
    "lat": "51.6472",
    "lng": "-0.3569",
    "name": "Bushey",
    "region": "ee",
    "unitaryAuthArea": "Hertfordshire"
  },
  {
    "alt": "100.0",
    "id": "354105",
    "lat": "51.6446",
    "lng": "-1.009",
    "name": "Watlington",
    "region": "se",
    "unitaryAuthArea": "Oxfordshire"
  },
  {
    "alt": "47.0",
    "id": "353207",
    "lat": "51.6383",
    "lng": "-0.4726",
    "name": "Rickmansworth",
    "region": "ee",
    "unitaryAuthArea": "Hertfordshire"
  },
  {
    "alt": "57.0",
    "id": "352650",
    "lat": "51.6306",
    "lng": "-1.2997",
    "name": "Milton Manor House",
    "region": "se",
    "unitaryAuthArea": "Oxfordshire"
  },
  {
    "alt": "57.0",
    "id": "3658",
    "lat": "51.62",
    "lng": "-1.097",
    "name": "Benson",
    "region": "se",
    "unitaryAuthArea": "Oxfordshire"
  },
  {
    "alt": "6.0",
    "id": "354217",
    "lat": "51.6109",
    "lng": "0.5223",
    "name": "Wickford",
    "region": "ee",
    "unitaryAuthArea": "Essex"
  },
  {
    "alt": "90.0",
    "id": "353848",
    "lat": "51.6059",
    "lng": "-2.9283",
    "name": "The Celtic Manor Golf Club",
    "region": "wl",
    "unitaryAuthArea": "Newport"
  },
  {
    "alt": "67.0",
    "id": "350295",
    "lat": "51.5924",
    "lng": "-3.1985",
    "name": "Bedwas",
    "region": "wl",
    "unitaryAuthArea": "Caerphilly"
  },
  {
    "alt": "10.0",
    "id": "353227",
    "lat": "51.5816",
    "lng": "0.7082",
    "name": "Rochford",
    "region": "ee",
    "unitaryAuthArea": "Essex"
  },
  {
    "alt": "97.0",
    "id": "351746",
    "lat": "51.5705",
    "lng": "-0.1797",
    "name": "Hampstead Heath Youth Hostel",
    "region": "se",
    "unitaryAuthArea": "Greater London"
  },
  {
    "alt": "136.0",
    "id": "353866",
    "lat": "51.5644",
    "lng": "-1.4425",
    "name": "The Ridgeway Youth Hostel",
    "region": "se",
    "unitaryAuthArea": "Oxfordshire"
  },
  {
    "alt": "0.0",
    "id": "354475",
    "lat": "51.5561",
    "lng": "-4.1563",
    "name": "Oxwich Bay (Beach)",
    "region": "wl",
    "unitaryAuthArea": "Swansea"
  },
  {
    "alt": "40.0",
    "id": "3672",
    "lat": "51.548",
    "lng": "-0.415",
    "name": "Northolt",
    "region": "se",
    "unitaryAuthArea": "Greater London"
  },
  {
    "alt": "122.0",
    "id": "354313",
    "lat": "51.541",
    "lng": "-1.9009",
    "name": "Royal Wootton Bassett",
    "region": "sw",
    "unitaryAuthArea": "Wiltshire"
  },
  {
    "alt": "4.0",
    "id": "352708",
    "lat": "51.536",
    "lng": "0.7396",
    "name": "Mr. B's Amusements Southend-On-Sea",
    "region": "ee",
    "unitaryAuthArea": "Southend-on-Sea"
  },
  {
    "alt": "6.0",
    "id": "353893",
    "lat": "51.5333",
    "lng": "0.7628",
    "name": "Thorpe Bay",
    "region": "ee",
    "unitaryAuthArea": "Southend-on-Sea"
  },
  {
    "alt": "48.0",
    "id": "352349",
    "lat": "51.5291",
    "lng": "-3.1892",
    "name": "Llanishen",
    "region": "wl",
    "unitaryAuthArea": "Cardiff"
  },
  {
    "alt": "44.0",
    "id": "352350",
    "lat": "51.5214",
    "lng": "-3.1194",
    "name": "Llanrumney",
    "region": "wl",
    "unitaryAuthArea": "Cardiff"
  },
  {
    "alt": "57.0",
    "id": "350611",
    "lat": "51.5177",
    "lng": "-2.5802",
    "name": "Bristol Filton Airport",
    "region": "sw",
    "unitaryAuthArea": "South Gloucestershire"
  },
  {
    "alt": "30.0",
    "id": "354189",
    "lat": "51.5123",
    "lng": "-3.2168",
    "name": "Whitchurch (Cardiff)",
    "region": "wl",
    "unitaryAuthArea": "Cardiff"
  },
  {
    "alt": "22.0",
    "id": "324387",
    "lat": "51.5077",
    "lng": "-0.165",
    "name": "Hyde Park",
    "region": "se",
    "unitaryAuthArea": "Greater London"
  },
  {
    "alt": "6.0",
    "id": "353605",
    "lat": "51.504",
    "lng": "-0.1052",
    "name": "Southwark",
    "region": "se",
    "unitaryAuthArea": "Greater London"
  },
  {
    "alt": "31.0",
    "id": "352490",
    "lat": "51.5012",
    "lng": "-3.193",
    "name": "Maendy",
    "region": "wl",
    "unitaryAuthArea": "Cardiff"
  },
  {
    "alt": "35.0",
    "id": "350762",
    "lat": "51.4925",
    "lng": "-3.2378",
    "name": "Cardiff Ski Centre",
    "region": "wl",
    "unitaryAuthArea": "Cardiff"
  },
  {
    "alt": "59.0",
    "id": "351325",
    "lat": "51.4897",
    "lng": "-2.6059",
    "name": "Eastfield",
    "region": "sw",
    "unitaryAuthArea": "Bristol"
  },
  {
    "alt": "41.0",
    "id": "350646",
    "lat": "51.488",
    "lng": "-2.5419",
    "name": "Broomhill",
    "region": "sw",
    "unitaryAuthArea": "Bristol"
  },
  {
    "alt": "15.0",
    "id": "354363",
    "lat": "51.48593",
    "lng": "-0.05096",
    "name": "Millwall F.C.",
    "region": "se",
    "unitaryAuthArea": "Greater London"
  },
  {
    "alt": "82.0",
    "id": "353660",
    "lat": "51.4818",
    "lng": "-2.498",
    "name": "Staple Hill",
    "region": "sw",
    "unitaryAuthArea": "South Gloucestershire"
  },
  {
    "alt": "25.0",
    "id": "3772",
    "lat": "51.479",
    "lng": "-0.449",
    "name": "Heathrow",
    "region": "se",
    "unitaryAuthArea": "Greater London"
  },
  {
    "alt": "44.0",
    "id": "353999",
    "lat": "51.4764",
    "lng": "-0.8617",
    "name": "Twyford",
    "region": "se",
    "unitaryAuthArea": "Wokingham"
  },
  {
    "alt": "77.0",
    "id": "353187",
    "lat": "51.4731",
    "lng": "-2.6041",
    "name": "Redland",
    "region": "sw",
    "unitaryAuthArea": "Bristol"
  },
  {
    "alt": "3.0",
    "id": "3784",
    "lat": "51.464",
    "lng": "0.314",
    "name": "Gravesend-Broadness",
    "region": "se",
    "unitaryAuthArea": "Kent"
  },
  {
    "alt": "72.0",
    "id": "354089",
    "lat": "51.46",
    "lng": "-2.4915",
    "name": "Warmley Hill",
    "region": "sw",
    "unitaryAuthArea": "South Gloucestershire"
  },
  {
    "alt": "100.0",
    "id": "354261",
    "lat": "51.4484",
    "lng": "-1.3438",
    "name": "Winterbourne (West Berkshire)",
    "region": "se",
    "unitaryAuthArea": "West Berkshire"
  },
  {
    "alt": "18.0",
    "id": "310076",
    "lat": "51.4414",
    "lng": "0.3724",
    "name": "Gravesend",
    "region": "se",
    "unitaryAuthArea": "Kent"
  },
  {
    "alt": "22.0",
    "id": "350294",
    "lat": "51.4382",
    "lng": "-2.6021",
    "name": "Bedminster",
    "region": "sw",
    "unitaryAuthArea": "Bristol"
  },
  {
    "alt": "15.0",
    "id": "353638",
    "lat": "51.431",
    "lng": "-0.514",
    "name": "Staines",
    "region": "se",
    "unitaryAuthArea": "Surrey"
  },
  {
    "alt": "29.0",
    "id": "354361",
    "lat": "51.4218",
    "lng": "-0.2088",
    "name": "Wimbledon",
    "region": "se",
    "unitaryAuthArea": "Greater London"
  },
  {
    "alt": "31.0",
    "id": "352083",
    "lat": "51.4146",
    "lng": "-2.5012",
    "name": "Keynsham",
    "region": "sw",
    "unitaryAuthArea": "Bath and North East Somerset"
  },
  {
    "alt": "185.0",
    "id": "350266",
    "lat": "51.4118",
    "lng": "-2.4057",
    "name": "Bath Racecourse",
    "region": "sw",
    "unitaryAuthArea": "Bath and North East Somerset"
  },
  {
    "alt": "0.0",
    "id": "354702",
    "lat": "51.4024",
    "lng": "0.9174",
    "name": "Leysdown-On-Sea (Beach)",
    "region": "se",
    "unitaryAuthArea": "Kent"
  },
  {
    "alt": "45.0",
    "id": "354124",
    "lat": "51.393",
    "lng": "-0.5964",
    "name": "Wentworth Club",
    "region": "se",
    "unitaryAuthArea": "Surrey"
  },
  {
    "alt": "6.0",
    "id": "353225",
    "lat": "51.3875",
    "lng": "0.5084",
    "name": "Rochester",
    "region": "se",
    "unitaryAuthArea": "Medway"
  },
  {
    "alt": "0.0",
    "id": "354468",
    "lat": "51.3831",
    "lng": "-3.3649",
    "name": "Fontygary Bay (Beach)",
    "region": "wl",
    "unitaryAuthArea": "Vale of Glamorgan"
  },
  {
    "alt": "28.0",
    "id": "353358",
    "lat": "51.3741",
    "lng": "-0.3638",
    "name": "Sandown Park Racecourse",
    "region": "se",
    "unitaryAuthArea": "Surrey"
  },
  {
    "alt": "30.0",
    "id": "353138",
    "lat": "51.368",
    "lng": "1.3214",
    "name": "Quex House & Gardens",
    "region": "se",
    "unitaryAuthArea": "Kent"
  },
  {
    "alt": "56.0",
    "id": "353226",
    "lat": "51.3576",
    "lng": "0.5601",
    "name": "Rochester Youth Hostel",
    "region": "se",
    "unitaryAuthArea": "Medway"
  },
  {
    "alt": "29.0",
    "id": "353853",
    "lat": "51.348",
    "lng": "-2.1956",
    "name": "The Courts Holt",
    "region": "sw",
    "unitaryAuthArea": "Wiltshire"
  },
  {
    "alt": "109.0",
    "id": "353014",
    "lat": "51.3388",
    "lng": "-1.7634",
    "name": "Pewsey",
    "region": "sw",
    "unitaryAuthArea": "Wiltshire"
  },
  {
    "alt": "176.0",
    "id": "352411",
    "lat": "51.3264",
    "lng": "0.0322",
    "name": "London Biggin Hill Airport",
    "region": "se",
    "unitaryAuthArea": "Greater London"
  },
  {
    "alt": "9.0",
    "id": "351448",
    "lat": "51.3155",
    "lng": "0.891",
    "name": "Faversham",
    "region": "se",
    "unitaryAuthArea": "Kent"
  },
  {
    "alt": "30.0",
    "id": "350532",
    "lat": "51.2967",
    "lng": "0.9493",
    "name": "Boughton Street",
    "region": "se",
    "unitaryAuthArea": "Kent"
  },
  {
    "alt": "90.0",
    "id": "352631",
    "lat": "51.2848",
    "lng": "-2.4846",
    "name": "Midsomer Norton",
    "region": "sw",
    "unitaryAuthArea": "Bath and North East Somerset"
  },
  {
    "alt": "78.0",
    "id": "351482",
    "lat": "51.2768",
    "lng": "-0.8411",
    "name": "Fleet",
    "region": "se",
    "unitaryAuthArea": "Hampshire"
  },
  {
    "alt": "39.0",
    "id": "353871",
    "lat": "51.2675",
    "lng": "1.0901",
    "name": "Kent C.C.C.",
    "region": "se",
    "unitaryAuthArea": "Kent"
  },
  {
    "alt": "78.0",
    "id": "354152",
    "lat": "51.2562",
    "lng": "-2.1844",
    "name": "Westbury (Wiltshire)",
    "region": "sw",
    "unitaryAuthArea": "Wiltshire"
  },
  {
    "alt": "26.0",
    "id": "353176",
    "lat": "51.2482",
    "lng": "-0.7114",
    "name": "Ash",
    "region": "se",
    "unitaryAuthArea": "Surrey"
  },
  {
    "alt": "0.0",
    "id": "354517",
    "lat": "51.2398",
    "lng": "-3.0054",
    "name": "Burnham-On-Sea - Jetty (Beach)",
    "region": "sw",
    "unitaryAuthArea": "Somerset"
  },
  {
    "alt": "100.0",
    "id": "324276",
    "lat": "51.23",
    "lng": "-3.83",
    "name": "Lynmouth",
    "nationalPark": "Exmoor National Park",
    "region": "sw",
    "unitaryAuthArea": "Devon"
  },
  {
    "alt": "63.0",
    "id": "352439",
    "lat": "51.2158",
    "lng": "-0.6058",
    "name": "Loseley House",
    "region": "se",
    "unitaryAuthArea": "Surrey"
  },
  {
    "alt": "0.0",
    "id": "354519",
    "lat": "51.2074",
    "lng": "-3.4635",
    "name": "Minehead - Terminus (Beach)",
    "region": "sw",
    "unitaryAuthArea": "Somerset"
  },
  {
    "alt": "132.0",
    "id": "3743",
    "lat": "51.201",
    "lng": "-1.805",
    "name": "Larkhill",
    "region": "sw",
    "unitaryAuthArea": "Wiltshire"
  },
  {
    "alt": "100.0",
    "id": "352652",
    "lat": "51.1918",
    "lng": "-3.474",
    "name": "Minehead Youth Hostel",
    "region": "sw",
    "unitaryAuthArea": "Somerset"
  },
  {
    "alt": "110.0",
    "id": "353714",
    "lat": "51.1788",
    "lng": "-1.8388",
    "name": "Stonehenge",
    "region": "sw",
    "unitaryAuthArea": "Wiltshire"
  },
  {
    "alt": "0.0",
    "id": "354578",
    "lat": "51.1686",
    "lng": "-4.2137",
    "name": "Woolacombe - Barricane Bay (Beach)",
    "region": "sw",
    "unitaryAuthArea": "Devon"
  },
  {
    "alt": "126.0",
    "id": "3746",
    "lat": "51.161",
    "lng": "-1.754",
    "name": "Boscombe Down",
    "region": "sw",
    "unitaryAuthArea": "Wiltshire"
  },
  {
    "alt": "59.0",
    "id": "352414",
    "lat": "51.1511",
    "lng": "-0.1768",
    "name": "London Gatwick Airport",
    "region": "se",
    "unitaryAuthArea": "West Sussex"
  },
  {
    "alt": "54.0",
    "id": "353864",
    "lat": "51.1445",
    "lng": "1.3799",
    "name": "The Pines St. Margaret's At Cliffe",
    "region": "se",
    "unitaryAuthArea": "Kent"
  },
  {
    "alt": "70.0",
    "id": "352887",
    "lat": "51.1324",
    "lng": "-0.6224",
    "name": "Oakhurst Cottage Hambledon",
    "region": "se",
    "unitaryAuthArea": "Surrey"
  },
  {
    "alt": "125.0",
    "id": "351309",
    "lat": "51.1282",
    "lng": "-0.0129",
    "name": "East Grinstead",
    "region": "se",
    "unitaryAuthArea": "West Sussex"
  },
  {
    "alt": "50.0",
    "id": "324257",
    "lat": "51.1173",
    "lng": "0.6101",
    "name": "Three Chimneys",
    "region": "se",
    "unitaryAuthArea": "Kent"
  },
  {
    "alt": "190.0",
    "id": "353723",
    "lat": "51.1075",
    "lng": "-2.3226",
    "name": "Stourhead",
    "region": "sw",
    "unitaryAuthArea": "Wiltshire"
  },
  {
    "alt": "148.0",
    "id": "351107",
    "lat": "51.0964",
    "lng": "-3.2378",
    "name": "Crowcombe Heathfield",
    "region": "sw",
    "unitaryAuthArea": "Somerset"
  },
  {
    "alt": "105.0",
    "id": "353821",
    "lat": "51.0885",
    "lng": "-2.014",
    "name": "Teffont Magna",
    "region": "sw",
    "unitaryAuthArea": "Wiltshire"
  },
  {
    "alt": "104.0",
    "id": "350540",
    "lat": "51.0776",
    "lng": "0.1971",
    "name": "Bowles Outdoor Centre",
    "region": "se",
    "unitaryAuthArea": "East Sussex"
  },
  {
    "alt": "89.0",
    "id": "354051",
    "lat": "51.071",
    "lng": "-0.098",
    "name": "Wakehurst Place",
    "region": "se",
    "unitaryAuthArea": "West Sussex"
  },
  {
    "alt": "50.0",
    "id": "324060",
    "lat": "51.0624",
    "lng": "-0.3243",
    "name": "Horsham",
    "region": "se",
    "unitaryAuthArea": "West Sussex"
  },
  {
    "alt": "78.0",
    "id": "354242",
    "lat": "51.0552",
    "lng": "-2.4147",
    "name": "Wincanton",
    "region": "sw",
    "unitaryAuthArea": "Somerset"
  },
  {
    "alt": "71.0",
    "id": "351796",
    "lat": "51.0462",
    "lng": "0.5111",
    "name": "Hawkhurst",
    "region": "se",
    "unitaryAuthArea": "Kent"
  },
  {
    "alt": "8.0",
    "id": "352213",
    "lat": "51.0377",
    "lng": "-2.8274",
    "name": "Langport",
    "region": "sw",
    "unitaryAuthArea": "Somerset"
  },
  {
    "alt": "16.0",
    "id": "351244",
    "lat": "51.0197",
    "lng": "-2.8494",
    "name": "Drayton (Somerset)",
    "region": "sw",
    "unitaryAuthArea": "Somerset"
  },
  {
    "alt": "40.0",
    "id": "352292",
    "lat": "51.0107",
    "lng": "-0.0805",
    "name": "Lindfield",
    "region": "se",
    "unitaryAuthArea": "West Sussex"
  },
  {
    "alt": "22.0",
    "id": "371366",
    "lat": "50.99523",
    "lng": "0.54399",
    "name": "Bodiam",
    "region": "se",
    "unitaryAuthArea": "East Sussex"
  },
  {
    "alt": "31.0",
    "id": "352629",
    "lat": "50.9864",
    "lng": "-0.7358",
    "name": "Midhurst",
    "nationalPark": "South Downs National Park",
    "region": "se",
    "unitaryAuthArea": "West Sussex"
  },
  {
    "alt": "73.0",
    "id": "354113",
    "lat": "50.9781",
    "lng": "-3.2232",
    "name": "Wellington",
    "region": "sw",
    "unitaryAuthArea": "Somerset"
  },
  {
    "alt": "140.0",
    "id": "351377",
    "lat": "50.968",
    "lng": "-4.5229",
    "name": "Elmscott Youth Hostel",
    "region": "sw",
    "unitaryAuthArea": "Devon"
  },
  {
    "alt": "48.0",
    "id": "350675",
    "lat": "50.954",
    "lng": "-0.1271",
    "name": "Burgess Hill",
    "region": "se",
    "unitaryAuthArea": "West Sussex"
  },
  {
    "alt": "137.0",
    "id": "352223",
    "lat": "50.9497",
    "lng": "-2.0747",
    "name": "Larmer Tree Gardens",
    "region": "sw",
    "unitaryAuthArea": "Dorset"
  },
  {
    "alt": "15.0",
    "id": "351320",
    "lat": "50.9396",
    "lng": "0.0953",
    "name": "East Sussex National Golf Club",
    "region": "se",
    "unitaryAuthArea": "East Sussex"
  },
  {
    "alt": "51.0",
    "id": "352001",
    "lat": "50.9264",
    "lng": "-2.9062",
    "name": "Ilminster",
    "region": "sw",
    "unitaryAuthArea": "Somerset"
  },
  {
    "alt": "40.0",
    "id": "353721",
    "lat": "50.9178",
    "lng": "-0.4528",
    "name": "Storrington",
    "region": "se",
    "unitaryAuthArea": "West Sussex"
  },
  {
    "alt": "5.0",
    "id": "349",
    "lat": "50.9134",
    "lng": "0.9597",
    "name": "Dungeness B",
    "region": "se",
    "unitaryAuthArea": "Kent"
  },
  {
    "alt": "61.0",
    "id": "324266",
    "lat": "50.9016",
    "lng": "-3.49",
    "name": "Tiverton",
    "region": "sw",
    "unitaryAuthArea": "Devon"
  },
  {
    "alt": "52.0",
    "id": "3882",
    "lat": "50.89",
    "lng": "0.319",
    "name": "Herstmonceux West End",
    "region": "se",
    "unitaryAuthArea": "East Sussex"
  },
  {
    "alt": "164.0",
    "id": "352096",
    "lat": "50.8766",
    "lng": "-4.4814",
    "name": "Kilkhampton",
    "region": "sw",
    "unitaryAuthArea": "Cornwall"
  },
  {
    "alt": "29.0",
    "id": "351723",
    "lat": "50.8641",
    "lng": "0.2568",
    "name": "Hailsham",
    "region": "se",
    "unitaryAuthArea": "East Sussex"
  },
  {
    "alt": "20.0",
    "id": "351439",
    "lat": "50.8556",
    "lng": "-1.1817",
    "name": "Fareham",
    "region": "se",
    "unitaryAuthArea": "Hampshire"
  },
  {
    "alt": "27.0",
    "id": "350840",
    "lat": "50.8528",
    "lng": "-1.2233",
    "name": "Catisfield",
    "region": "se",
    "unitaryAuthArea": "Hampshire"
  },
  {
    "alt": "9.0",
    "id": "351021",
    "lat": "50.8448",
    "lng": "-1.0623",
    "name": "Cosham",
    "region": "se",
    "unitaryAuthArea": "Portsmouth"
  },
  {
    "alt": "180.0",
    "id": "356039",
    "lat": "50.837",
    "lng": "-0.06",
    "name": "Woodingdean",
    "region": "se",
    "unitaryAuthArea": "Brighton and Hove"
  },
  {
    "alt": "0.0",
    "id": "354522",
    "lat": "50.8316",
    "lng": "-4.5546",
    "name": "Bude - Summerleaze (Beach)",
    "region": "sw",
    "unitaryAuthArea": "Cornwall"
  },
  {
    "alt": "7.0",
    "id": "310182",
    "lat": "50.8262",
    "lng": "-4.5425",
    "name": "Bude",
    "region": "sw",
    "unitaryAuthArea": "Cornwall"
  },
  {
    "alt": "68.0",
    "id": "351785",
    "lat": "50.8187",
    "lng": "-4.0712",
    "name": "Hatherleigh",
    "region": "sw",
    "unitaryAuthArea": "Devon"
  },
  {
    "alt": "1.0",
    "id": "350725",
    "lat": "50.8123",
    "lng": "-1.3109",
    "name": "Calshot Activities Centre",
    "nationalPark": "New Forest National Park",
    "region": "se",
    "unitaryAuthArea": "Hampshire"
  },
  {
    "alt": "0.0",
    "id": "354677",
    "lat": "50.8075",
    "lng": "-0.3837",
    "name": "Worthing (Beach)",
    "region": "se",
    "unitaryAuthArea": "West Sussex"
  },
  {
    "alt": "0.0",
    "id": "354663",
    "lat": "50.8008",
    "lng": "-1.2038",
    "name": "Lee-On-Solent (Beach)",
    "region": "se",
    "unitaryAuthArea": "Hampshire"
  },
  {
    "alt": "11.0",
    "id": "351411",
    "lat": "50.7932",
    "lng": "-1.4",
    "name": "Exbury Gardens",
    "nationalPark": "New Forest National Park",
    "region": "se",
    "unitaryAuthArea": "Hampshire"
  },
  {
    "alt": "0.0",
    "id": "354664",
    "lat": "50.7901",
    "lng": "-1.108",
    "name": "Old Portsmouth Beach (Victoria Pier) (Beach)",
    "region": "se",
    "unitaryAuthArea": "Portsmouth"
  },
  {
    "alt": "0.0",
    "id": "354660",
    "lat": "50.784",
    "lng": "-1.3528",
    "name": "Lepe (Beach)",
    "region": "se",
    "unitaryAuthArea": "Hampshire"
  },
  {
    "alt": "181.0",
    "id": "354257",
    "lat": "50.7819",
    "lng": "-4.2005",
    "name": "Winsford Walled Garden (Halwill Junction)",
    "region": "sw",
    "unitaryAuthArea": "Devon"
  },
  {
    "alt": "60.0",
    "id": "351399",
    "lat": "50.7747",
    "lng": "-3.2965",
    "name": "Escot",
    "region": "sw",
    "unitaryAuthArea": "Devon"
  },
  {
    "alt": "0.0",
    "id": "354672",
    "lat": "50.7675",
    "lng": "-0.7375",
    "name": "Pagham (Beach)",
    "region": "se",
    "unitaryAuthArea": "West Sussex"
  },
  {
    "alt": "22.0",
    "id": "352476",
    "lat": "50.758",
    "lng": "-1.5405",
    "name": "Lymington",
    "region": "se",
    "unitaryAuthArea": "Hampshire"
  },
  {
    "alt": "10.0",
    "id": "350741",
    "lat": "50.7488",
    "lng": "-1.9721",
    "name": "Canford Heath",
    "region": "sw",
    "unitaryAuthArea": "Poole"
  },
  {
    "alt": "3.0",
    "id": "351992",
    "lat": "50.7398",
    "lng": "-1.8103",
    "name": "Iford",
    "region": "sw",
    "unitaryAuthArea": "Bournemouth"
  },
  {
    "alt": "7.0",
    "id": "353654",
    "lat": "50.7355",
    "lng": "-1.9798",
    "name": "Stanley Green",
    "region": "sw",
    "unitaryAuthArea": "Poole"
  },
  {
    "alt": "6.0",
    "id": "324068",
    "lat": "50.7305",
    "lng": "-0.7922",
    "name": "Selsey",
    "region": "se",
    "unitaryAuthArea": "West Sussex"
  },
  {
    "alt": "5.0",
    "id": "352634",
    "lat": "50.7252",
    "lng": "-1.5883",
    "name": "Milford On Sea",
    "region": "se",
    "unitaryAuthArea": "Hampshire"
  },
  {
    "alt": "345.0",
    "id": "354959",
    "lat": "50.7198",
    "lng": "-4.0024",
    "name": "Okehampton Army Training Camp",
    "nationalPark": "Dartmoor National Park",
    "region": "sw",
    "unitaryAuthArea": "Devon"
  },
  {
    "alt": "27.0",
    "id": "350574",
    "lat": "50.7167",
    "lng": "-1.9142",
    "name": "Branksome Park",
    "region": "sw",
    "unitaryAuthArea": "Poole"
  },
  {
    "alt": "0.0",
    "id": "354617",
    "lat": "50.7109",
    "lng": "-2.766",
    "name": "West Bay - West (Beach)",
    "region": "sw",
    "unitaryAuthArea": "Dorset"
  },
  {
    "alt": "27.0",
    "id": "351072",
    "lat": "50.7046",
    "lng": "-3.4179",
    "name": "Crealy Adventure Park Devon",
    "region": "sw",
    "unitaryAuthArea": "Devon"
  },
  {
    "alt": "0.0",
    "id": "354652",
    "lat": "50.6988",
    "lng": "-1.0986",
    "name": "St Helens (Beach)",
    "region": "se",
    "unitaryAuthArea": "Isle of Wight"
  },
  {
    "alt": "80.0",
    "id": "353222",
    "lat": "50.6924",
    "lng": "-1.2362",
    "name": "Robin Hill Countryside Adventure Park",
    "region": "se",
    "unitaryAuthArea": "Isle of Wight"
  },
  {
    "alt": "100.0",
    "id": "353670",
    "lat": "50.6818",
    "lng": "-3.697",
    "name": "Steps Bridge Youth Hostel",
    "nationalPark": "Dartmoor National Park",
    "region": "sw",
    "unitaryAuthArea": "Devon"
  },
  {
    "alt": "0.0",
    "id": "354653",
    "lat": "50.6699",
    "lng": "-1.0969",
    "name": "Whitecliff Bay (Beach)",
    "region": "se",
    "unitaryAuthArea": "Isle of Wight"
  },
  {
    "alt": "64.0",
    "id": "353920",
    "lat": "50.66",
    "lng": "-4.7632",
    "name": "Tintagel Youth Hostel",
    "region": "sw",
    "unitaryAuthArea": "Cornwall"
  },
  {
    "alt": "0.0",
    "id": "354627",
    "lat": "50.6534",
    "lng": "-1.953",
    "name": "Studland - Knoll Beach (Beach)",
    "region": "sw",
    "unitaryAuthArea": "Dorset"
  },
  {
    "alt": "71.0",
    "id": "324272",
    "lat": "50.6396",
    "lng": "-4.3574",
    "name": "Launceston",
    "region": "sw",
    "unitaryAuthArea": "Cornwall"
  },
  {
    "alt": "603.0",
    "id": "371422",
    "lat": "50.6269",
    "lng": "-3.9822",
    "name": "Cut Hill",
    "nationalPark": "Dartmoor National Park",
    "region": "sw",
    "unitaryAuthArea": "Devon"
  },
  {
    "alt": "10.0",
    "id": "99159",
    "lat": "50.6136",
    "lng": "-1.9588",
    "name": "Swanage",
    "region": "sw",
    "unitaryAuthArea": "Dorset"
  },
  {
    "alt": "546.0",
    "id": "353246",
    "lat": "50.6023",
    "lng": "-3.9678",
    "name": "Rough Tor",
    "nationalPark": "Dartmoor National Park",
    "region": "sw",
    "unitaryAuthArea": "Devon"
  },
  {
    "alt": "0.0",
    "id": "354656",
    "lat": "50.5931",
    "lng": "-1.2084",
    "name": "Ventnor (Beach)",
    "region": "se",
    "unitaryAuthArea": "Isle of Wight"
  },
  {
    "alt": "457.0",
    "id": "354958",
    "lat": "50.5803",
    "lng": "-3.7551",
    "name": "Haytor",
    "nationalPark": "Dartmoor National Park",
    "region": "sw",
    "unitaryAuthArea": "Devon"
  },
  {
    "alt": "3.0",
    "id": "324379",
    "lat": "50.571",
    "lng": "-2.4527",
    "name": "Weymouth And Portland",
    "region": "sw",
    "unitaryAuthArea": "Dorset"
  },
  {
    "alt": "0.0",
    "id": "354608",
    "lat": "50.5476",
    "lng": "-3.4911",
    "name": "Teignmouth (Town) (Beach)",
    "region": "sw",
    "unitaryAuthArea": "Devon"
  },
  {
    "alt": "5.0",
    "id": "322613",
    "lat": "50.5416",
    "lng": "-4.9379",
    "name": "Padstow",
    "region": "sw",
    "unitaryAuthArea": "Cornwall"
  },
  {
    "alt": "20.0",
    "id": "353987",
    "lat": "50.5269",
    "lng": "-5.0203",
    "name": "Treyarnon Bay Youth Hostel",
    "region": "sw",
    "unitaryAuthArea": "Cornwall"
  },
  {
    "alt": "0.0",
    "id": "354532",
    "lat": "50.5094",
    "lng": "-5.0254",
    "name": "Porthcothan (Beach)",
    "region": "sw",
    "unitaryAuthArea": "Cornwall"
  },
  {
    "alt": "69.0",
    "id": "351022",
    "lat": "50.4952",
    "lng": "-4.2242",
    "name": "Cotehele",
    "region": "sw",
    "unitaryAuthArea": "Cornwall"
  },
  {
    "alt": "325.0",
    "id": "354976",
    "lat": "50.473",
    "lng": "-3.8665",
    "name": "Avon Dam Reservoir",
    "nationalPark": "Dartmoor National Park",
    "region": "sw",
    "unitaryAuthArea": "Devon"
  },
  {
    "alt": "136.0",
    "id": "352301",
    "lat": "50.455",
    "lng": "-4.4636",
    "name": "Liskeard",
    "region": "sw",
    "unitaryAuthArea": "Cornwall"
  },
  {
    "alt": "103.0",
    "id": "3817",
    "lat": "50.438",
    "lng": "-4.999",
    "name": "Newquay Cornwall Airport",
    "region": "sw",
    "unitaryAuthArea": "Cornwall"
  },
  {
    "alt": "35.0",
    "id": "351396",
    "lat": "50.4188",
    "lng": "-4.1739",
    "name": "Ernesettle",
    "region": "sw",
    "unitaryAuthArea": "Plymouth"
  },
  {
    "alt": "52.0",
    "id": "351931",
    "lat": "50.41",
    "lng": "-4.1548",
    "name": "Honicknowle",
    "region": "sw",
    "unitaryAuthArea": "Plymouth"
  },
  {
    "alt": "0.0",
    "id": "354596",
    "lat": "50.3999",
    "lng": "-3.5043",
    "name": "Shoalstone Beach (Beach)",
    "region": "sw",
    "unitaryAuthArea": "Torbay"
  },
  {
    "alt": "14.0",
    "id": "353044",
    "lat": "50.3856",
    "lng": "-4.0501",
    "name": "Plympton",
    "region": "sw",
    "unitaryAuthArea": "Plymouth"
  },
  {
    "alt": "11.0",
    "id": "353951",
    "lat": "50.3748",
    "lng": "-4.1932",
    "name": "Torpoint",
    "region": "sw",
    "unitaryAuthArea": "Cornwall"
  },
  {
    "alt": "4.0",
    "id": "352437",
    "lat": "50.3557",
    "lng": "-4.4541",
    "name": "Looe",
    "region": "sw",
    "unitaryAuthArea": "Cornwall"
  },
  {
    "alt": "47.0",
    "id": "353005",
    "lat": "50.3437",
    "lng": "-5.1585",
    "name": "Perranporth Youth Hostel",
    "region": "sw",
    "unitaryAuthArea": "Cornwall"
  },
  {
    "alt": "0.0",
    "id": "354575",
    "lat": "50.3309",
    "lng": "-4.2011",
    "name": "Cawsand Bay (Beach)",
    "region": "sw",
    "unitaryAuthArea": "Cornwall"
  },
  {
    "alt": "32.0",
    "id": "371634",
    "lat": "50.29223",
    "lng": "-3.65074",
    "name": "Slapton",
    "region": "sw",
    "unitaryAuthArea": "Devon"
  },
  {
    "alt": "0.0",
    "id": "354565",
    "lat": "50.275",
    "lng": "-4.7836",
    "name": "Polstreath (Beach)",
    "region": "sw",
    "unitaryAuthArea": "Cornwall"
  },
  {
    "alt": "0.0",
    "id": "354543",
    "lat": "50.2613",
    "lng": "-5.2939",
    "name": "Portreath (Beach)",
    "region": "sw",
    "unitaryAuthArea": "Cornwall"
  },
  {
    "alt": "0.0",
    "id": "354590",
    "lat": "50.2254",
    "lng": "-3.784",
    "name": "Salcombe - South Sands (Beach)",
    "region": "sw",
    "unitaryAuthArea": "Devon"
  },
  {
    "alt": "23.0",
    "id": "353321",
    "lat": "50.2107",
    "lng": "-5.4793",
    "name": "St Ives (Cornwall)",
    "region": "sw",
    "unitaryAuthArea": "Cornwall"
  },
  {
    "alt": "3.0",
    "id": "353327",
    "lat": "50.158",
    "lng": "-5.0135",
    "name": "St Mawes",
    "region": "sw",
    "unitaryAuthArea": "Cornwall"
  },
  {
    "alt": "108.0",
    "id": "353979",
    "lat": "50.1262",
    "lng": "-5.5733",
    "name": "Trengwainton Garden",
    "region": "sw",
    "unitaryAuthArea": "Cornwall"
  },
  {
    "alt": "120.0",
    "id": "352206",
    "lat": "50.1015",
    "lng": "-5.6702",
    "name": "Land's End Airport",
    "region": "sw",
    "unitaryAuthArea": "Cornwall"
  },
  {
    "alt": "0.0",
    "id": "354558",
    "lat": "50.0376",
    "lng": "-5.2678",
    "name": "Lizard Church Cove (Beach)",
    "region": "sw",
    "unitaryAuthArea": "Cornwall"
  },
  {
    "alt": "7.0",
    "id": "351969",
    "lat": "49.9142",
    "lng": "-6.3102",
    "name": "Hugh Town",
    "region": "sw",
    "unitaryAuthArea": "Isles of Scilly"
  },
  {
    "alt": "0.0",
    "id": "354436",
    "lat": "49.4523",
    "lng": "-2.6507",
    "name": "Leree (Beach)",
    "region": "sw",
    "unitaryAuthArea": "Guernsey"
  },
  {
    "alt": "0.0",
    "id": "354387",
    "lat": "49.238",
    "lng": "-2.08",
    "name": "Bouley Bay (Beach)",
    "region": "sw",
    "unitaryAuthArea": "Jersey"
  },
  {
    "alt": "27.0",
    "id": "353003",
    "lat": "49.1902",
    "lng": "-2.1142",
    "name": "People's Park St Helier",
    "region": "sw",
    "unitaryAuthArea": "Jersey"
  }
]